station_id,date_from,date_to,altitude,latitude,longitude,name,state
3,01/09/1995,01/04/2011,202,50.7827,6.0941,Aachen,Nordrhein-Westfalen
20,14/08/2004,25/01/2021,432,48.922,9.9129,Abtsgmünd-Untergröningen,Baden-Württemberg
44,01/04/2007,25/01/2021,44,52.9336,8.237,Großenkneten,Niedersachsen
53,01/10/2005,25/01/2021,60,52.585,13.5634,Ahrensfelde,Brandenburg
71,22/10/2004,01/01/2020,759,48.2156,8.9784,Albstadt-Badkap,Baden-Württemberg
73,01/04/2007,25/01/2021,340,48.6159,13.0506,Aldersbach-Kriestorf,Bayern
78,01/11/2004,25/01/2021,65,52.4853,7.9126,Alfhausen,Niedersachsen
87,01/02/2005,25/01/2021,158,51.095,11.0479,Alperstedt,Thüringen
91,01/09/2004,25/01/2021,300,50.7446,9.345,Alsfeld-Eifa,Hessen
103,01/07/2004,25/01/2021,364,48.896,12.217,Hagelstadt,Bayern
118,01/06/2005,25/01/2021,388,49.4053,12.2852,Altendorf,Bayern
124,01/11/2006,25/01/2021,265,51.2388,11.577,Bibra,
130,01/12/2004,25/01/2021,300,49.7283,9.7692,Altertheim-Oberaltertheim,Bayern
131,01/11/2004,25/01/2021,296,51.0881,12.9326,Geringswalde-Altgeringswalde,Sachsen
142,01/12/2005,25/01/2021,511,48.406,11.3117,Altomünster-Maisbrunn,Bayern
150,01/07/2005,25/01/2021,215,49.7273,8.1164,Alzey,Rheinland-Pfalz
151,01/03/2005,25/01/2021,382,49.4691,11.8546,Amberg-Unterammersricht,Bayern
152,01/07/2009,12/01/2012,57,53.1268,10.2184,Amelinghausen,Niedersachsen
154,01/03/2005,25/01/2021,516,48.0197,12.2925,Amerang-Pfaffing,Bayern
158,01/07/2004,25/01/2021,210,50.784,8.9545,Amöneburg-Rüdigheim,Hessen
161,01/09/2011,25/01/2021,75,50.4237,7.4202,Andernach,Rheinland-Pfalz
164,01/09/1995,25/01/2021,54,53.0316,13.9908,Angermünde,Brandenburg
167,01/09/2004,25/01/2021,9,53.8412,13.6846,Anklam,Mecklenburg-Vorpommern
183,01/09/1995,25/01/2021,42,54.6792,13.4343,Arkona,Mecklenburg-Vorpommern
191,01/03/2005,25/01/2021,217,49.9694,9.9114,Arnstein-Müdesheim,Bayern
194,01/02/2005,25/01/2021,265,51.3431,9.0763,Arolsen-Landau,
198,01/09/1995,25/01/2021,164,51.3745,11.292,Artern,Thüringen
200,01/12/2004,25/01/2021,517,50.085,6.3161,Lauperath-Scheidchen,Rheinland-Pfalz
205,01/05/2005,25/01/2021,681,47.7275,12.2982,Aschau-Stein,Bayern
211,01/11/2004,25/01/2021,200,50.58,8.4685,Aßlar Klein-Altenstädten,Hessen
213,01/05/2007,25/01/2021,170,51.9375,10.9897,Sargstedt,Sachsen-Anhalt
216,01/10/2004,25/01/2021,298,51.1143,7.8807,Attendorn-Neulisternohl,Nordrhein-Westfalen
217,01/01/2005,25/01/2021,670,47.8774,11.3643,Attenkam,Bayern
222,01/09/1995,25/01/2021,393,50.5908,12.7139,Aue,Sachsen
227,01/10/2004,25/01/2021,432,49.8823,11.2656,Aufseß-Hochstahl,Bayern
232,07/11/1996,25/01/2021,462,48.4253,10.9417,Augsburg,Bayern
240,01/09/2004,25/01/2021,293,50.1805,9.5743,Aura im Sinngrund,Bayern
246,01/01/2006,12/08/2008,73,51.7015,12.8909,Axien,Sachsen-Anhalt
257,01/11/2002,25/01/2021,240,48.727,8.2457,Baden-Baden-Geroldsau,Baden-Württemberg
259,01/07/2004,25/01/2021,273,47.8064,7.6387,Müllheim,Baden-Württemberg
269,24/05/2006,25/01/2021,599,48.5116,8.3176,Baiersbronn-Mitteltal,Baden-Württemberg
275,01/10/2004,25/01/2021,1039,47.465,10.1043,Balderschwang,Bayern
279,01/11/2006,25/01/2021,457,48.7573,9.4514,Baltmannsweiler-Hohengehren,Baden-Württemberg
282,01/09/1995,25/01/2021,240,49.8743,10.9206,Bamberg,Bayern
287,01/05/2008,25/01/2021,52,51.9611,11.9159,Walternienburg-Ronney,Sachsen-Anhalt
292,01/12/2005,25/01/2021,37,52.6965,8.487,Barnstorf,Niedersachsen
294,01/07/2004,25/01/2021,110,52.3199,9.43,Barsinghausen-Hohenbostel,Niedersachsen
298,01/09/1995,25/01/2021,3,54.3406,12.7108,Barth,Mecklenburg-Vorpommern
301,01/09/2015,25/01/2021,659,48.7584,9.9855,Bartholomä,Baden-Württemberg
303,01/09/1995,25/01/2021,55,52.0614,13.4996,Baruth,Brandenburg
310,01/11/2004,25/01/2021,590,51.0662,8.5375,Battenberg-Hof Karlsburg,Hessen
312,01/06/2007,25/01/2021,52,53.8149,11.8818,Baumgarten,Mecklenburg-Vorpommern
314,01/05/2004,25/01/2021,234,51.1604,14.5042,Kubschütz,
316,01/11/2004,25/01/2021,310,49.6957,7.8387,Bayerfeld-Steckweiler -Schmalfelderhof,Rheinland-Pfalz
320,01/07/2006,25/01/2021,350,49.9667,11.5197,Heinersreuth-Vollhof,Bayern
326,01/07/2004,08/07/2013,120,51.7204,8.0577,Beckum-Unterberg,Nordrhein-Westfalen
330,01/08/2004,25/01/2021,455,49.5617,8.9673,Oberzent-Beerfelden,Hessen
336,01/09/2004,25/01/2021,290,51.0221,10.5148,Hörselberg-Hainich-Behringen,Thüringen
342,01/12/2010,25/01/2021,103,52.317,8.1694,Belm,Niedersachsen
348,01/09/1995,02/09/2011,127,50.4135,7.5886,Bendorf,Rheinland-Pfalz
357,01/09/2005,25/01/2021,50,52.3018,7.1301,Bentheim,
359,01/07/2004,25/01/2021,464,49.1022,11.796,Beratzhausen,Bayern
360,01/07/2004,25/01/2021,403,49.1115,11.4328,Berching,Bayern
377,01/10/2004,25/01/2021,210,49.107,7.9967,Bergzabern,
378,01/04/2005,25/01/2021,136,51.6843,10.1077,Berka,Niedersachsen
379,01/09/2017,25/01/2021,303,50.9074,11.2665,Berka,
384,22/06/2005,18/09/2014,570,48.0409,10.0808,Berkheim,Baden-Württemberg
389,01/11/2009,25/01/2021,436,51.0148,8.4318,Berleburg,
390,01/07/2004,25/01/2021,610,50.9837,8.3683,Berleburg,
399,01/09/1995,01/08/2011,36,52.5198,13.4057,Berlin-Alexanderplatz,Berlin
400,01/06/2004,25/01/2021,60,52.6309,13.5022,Berlin-Buch,Berlin
403,28/01/2002,25/01/2021,51,52.4537,13.3017,Berlin-Dahlem (FU),Berlin
410,01/05/2004,16/06/2020,33,52.404,13.7309,Berlin-Kaniswall,Berlin
420,01/08/2007,25/01/2021,60,52.5447,13.5598,Berlin-Marzahn,Berlin
427,01/09/1995,25/01/2021,46,52.3807,13.5306,Berlin Brandenburg,Brandenburg
430,01/09/1995,25/01/2021,36,52.5644,13.3088,Berlin-Tegel,Berlin
433,01/09/1995,25/01/2021,48,52.4675,13.4021,Berlin-Tempelhof,Berlin
445,01/07/2005,25/01/2021,85,51.8218,11.711,Bernburg/Saale (Nord),Sachsen-Anhalt
450,01/11/2005,04/12/2012,120,49.9186,7.0664,Bernkastel-Kues,Rheinland-Pfalz
460,01/09/1995,25/01/2021,363,49.2641,6.6868,Berus,Saarland
479,01/02/2005,25/01/2021,138,50.2435,9.2893,Wächtersbach,Hessen
498,24/07/2006,25/01/2021,760,47.7453,8.3111,Ühlingen-Birkendorf,Baden-Württemberg
504,01/06/2007,25/01/2021,79,51.7982,13.9716,Bischdorf,
505,01/09/2004,16/06/2006,332,51.4268,10.0932,Bischhagen,Thüringen
523,01/03/2006,01/06/2018,359,49.9797,6.5325,Bitburg,Rheinland-Pfalz
535,01/06/2004,25/01/2021,417,50.0372,7.3079,Blankenrath,Rheinland-Pfalz
542,01/11/2004,25/01/2021,12,53.2401,10.8522,Bleckede-Walmsburg,Niedersachsen
550,01/11/2002,25/01/2021,344,50.9041,11.7985,Bobeck,Thüringen
551,01/11/2006,25/01/2021,517,50.3887,11.9955,Weischlitz-Heinersgrün,Sachsen
554,01/09/1995,25/01/2021,23,51.8293,6.5365,Bocholt-Liedern (Wasserwerk),Nordrhein-Westfalen
555,01/01/2008,01/11/2018,101,51.4789,7.2697,Bochum,Nordrhein-Westfalen
561,01/10/2005,25/01/2021,11,53.367,7.9679,Bockhorn-Grabstede,Niedersachsen
567,01/09/2009,25/01/2021,258,51.6957,9.5135,Bodenfelde-Amelith,Niedersachsen
589,01/05/2004,25/01/2021,343,48.8846,12.7453,Bogen-Pfelling,Bayern
591,01/09/1995,25/01/2021,45,53.3911,10.6878,Boizenburg,Mecklenburg-Vorpommern
596,01/09/1995,25/01/2021,15,54.0028,11.1908,Boltenhagen,Mecklenburg-Vorpommern
599,01/09/1995,02/03/1999,62,50.7055,7.1467,Bonn-Friesdorf,Nordrhein-Westfalen
603,03/03/1999,25/01/2021,147,50.7293,7.204,Königswinter-Heiderhof,Nordrhein-Westfalen
613,01/11/2004,25/01/2021,206,51.5677,9.2324,Borgentreich,Nordrhein-Westfalen
617,01/06/2004,25/01/2021,47,51.873,6.8863,Borken in Westfalen,Nordrhein-Westfalen
622,01/06/2006,25/01/2021,66,52.3745,11.4655,Westheide-Born,Sachsen-Anhalt
630,01/06/2006,25/01/2021,83,52.0194,11.4055,Bottmersdorf-Klein Germersleben,Sachsen-Anhalt
633,01/06/2004,25/01/2021,126,51.4041,14.5681,Boxberg,Sachsen
644,01/01/2005,25/01/2021,150,51.7049,9.1738,Brakel,Nordrhein-Westfalen
653,01/05/2005,25/01/2021,483,47.7241,12.1092,Brannenburg-Degerndorf,Bayern
656,01/09/1995,25/01/2021,607,51.7234,10.6021,Braunlage,Niedersachsen
662,22/10/1997,25/01/2021,81,52.2915,10.4464,Braunschweig,Niedersachsen
684,21/06/2005,25/01/2021,1001,47.9385,8.0761,Breitnau,Baden-Württemberg
685,28/09/1995,02/11/2006,585,49.9017,9.4281,Breitsol,Bayern
691,01/09/1995,25/01/2021,4,53.045,8.7979,Bremen,Bremen
701,10/06/1998,25/01/2021,7,53.5332,8.5761,Bremerhaven,Bremen
704,01/09/1995,25/01/2021,11,53.4451,9.139,Bremervörde,Niedersachsen
714,01/06/2005,25/01/2021,46,52.3653,14.2474,Neu Madlitz,Brandenburg
721,01/06/2004,25/01/2021,101,51.5168,12.4356,Schönwölkau-Brinnis,Sachsen
723,01/12/2004,25/01/2021,290,50.1841,7.24,Kail,Rheinland-Pfalz
731,01/12/2007,25/01/2021,130,49.1127,8.6372,Bruchsal-Heidelsheim,Baden-Württemberg
735,01/05/2005,25/01/2021,52,52.1692,12.7334,Brück-Gömnigk,Brandenburg
753,01/05/2004,25/01/2021,310,50.87,11.5022,Bucha,Thüringen
755,01/06/2004,25/01/2021,340,49.5182,9.3213,Buchen,
757,01/06/2004,25/01/2021,445,47.9625,7.9983,Buchenbach,Baden-Württemberg
760,01/12/2017,24/01/2021,82,53.3629,9.9435,Rosengarten-Klecken,Niedersachsen
775,01/10/2004,25/01/2021,100,52,10.6323,Osterwieck-Rimbeck,Sachsen-Anhalt
789,01/06/2004,25/01/2021,263,49.6063,9.8834,Bütthard,Bayern
791,01/01/2006,25/01/2021,8,54.6328,8.937,Bordelum,Schleswig-Holstein
796,01/11/2004,25/01/2021,412,50.7556,8.1257,Burbach-Würgendorf,Nordrhein-Westfalen
797,01/08/2005,25/01/2021,39,52.3241,11.8339,Burg-Blumenthal,Sachsen-Anhalt
801,01/11/2002,25/01/2021,331,49.4549,10.324,Burgbernheim,Bayern
808,01/03/2006,25/01/2021,413,48.187,12.8098,Mehring,
812,01/12/2004,25/01/2021,278,50.1429,11.2322,Burgkunstadt,Bayern
815,01/11/2006,25/01/2021,154,51.5427,11.6948,Seegebiet Mansfelder Land-Dederstedt,Sachsen-Anhalt
817,01/02/2005,25/01/2021,293,51.0306,8.8146,Burgwald-Bottendorf,Hessen
837,01/07/2004,25/01/2021,244,50.2863,8.2949,Camberg,
839,05/01/2011,25/01/2021,27,53.7575,10.9288,Carlow,Mecklenburg-Vorpommern
840,01/09/1995,25/01/2021,897,50.4313,12.6114,Carlsfeld,Sachsen
848,01/08/2008,25/01/2021,38,52.6146,10.0726,Celle (Stadt),Niedersachsen
853,01/09/1995,25/01/2021,418,50.7913,12.872,Chemnitz,Sachsen
856,07/09/1995,25/01/2021,551,47.8843,12.5404,Chieming,Bayern
857,01/02/2005,25/01/2021,535,47.8665,12.395,Chiemsee-Herrenchiemsee,Bayern
863,01/10/2007,05/04/2012,585,51.7904,10.347,Clausthal-Zellerfeld,Niedersachsen
867,01/09/1995,25/01/2021,344,50.3066,10.9679,Lautertal-Oberlauter,Bayern
871,01/08/2005,25/01/2021,87,51.9618,7.1585,Coesfeld,Nordrhein-Westfalen
874,01/08/2005,25/01/2021,52,52.2994,11.6733,Zielitz,Sachsen-Anhalt
880,01/09/1995,25/01/2021,69,51.776,14.3168,Cottbus,Brandenburg
885,01/06/2005,25/01/2021,450,49.8449,11.616,Creußen-Bühl,Bayern
891,10/05/2000,25/01/2021,5,53.8713,8.7058,Cuxhaven,Niedersachsen
896,01/08/2004,25/01/2021,170,51.0778,10.8619,Dachwig,Thüringen
902,01/10/2006,25/01/2021,573,50.4115,6.5615,Dahlem-Schmidtheim,Nordrhein-Westfalen
917,01/09/2004,25/01/2021,162,49.8809,8.6779,Darmstadt,Hessen
931,19/10/2004,25/01/2021,708,47.8007,9.4108,Deggenhausertal-Azenweiler,Baden-Württemberg
934,01/10/2004,25/01/2021,88,51.7835,8.5658,Delbrück,Nordrhein-Westfalen
942,01/11/2004,25/01/2021,308,50.122,6.599,Densborn,Rheinland-Pfalz
953,10/12/1997,25/01/2021,481,49.7619,7.0542,Deuselbach,Rheinland-Pfalz
961,01/07/2004,25/01/2021,258,51.4743,9.0039,Diemelstadt-Rhoden,Hessen
962,01/05/2004,25/01/2021,326,50.8018,11.1692,Stadtilm-Dienstedt,Thüringen
963,03/06/1996,25/01/2021,38,52.5881,8.3424,Diepholz,Niedersachsen
966,01/02/2006,25/01/2021,65,52.7522,10.8831,Diesdorf,Sachsen-Anhalt
970,01/11/2002,25/01/2021,405,49.4158,10.6734,Dietenhofen,Bayern
974,01/09/2006,25/01/2021,440,51.5307,11.0457,Südharz-Dietersdorf,Sachsen-Anhalt
977,01/09/2004,01/10/2012,377,50.8541,8.3416,Dietzhölztal-Mandeln,Hessen
978,01/02/2005,25/01/2021,155,50.3574,8.0485,Holzheim bei Diez,Rheinland-Pfalz
979,01/09/2004,25/01/2021,314,50.7364,8.2672,Dillenburg,Hessen
983,01/12/2006,25/01/2021,419,48.5562,10.5599,Dillingen/Donau-Fristingen,Bayern
985,01/01/2006,25/01/2021,492,49.0504,10.2892,Dinkelsbühl-Oberwinstetten,Bayern
988,01/09/2005,25/01/2021,23,52.6746,8.114,Dinklage,Niedersachsen
989,01/02/2005,25/01/2021,46,51.5765,6.7849,Dinslaken,Nordrhein-Westfalen
991,01/02/2005,25/01/2021,359,50.9116,13.7087,Dippoldiswalde-Reinberg,Sachsen
1001,01/09/1995,25/01/2021,97,51.6451,13.5747,Doberlug-Kirchhain,Brandenburg
1014,01/03/2005,25/01/2021,2,53.2289,7.2191,Dollart-Kanalpolder,Niedersachsen
1024,01/08/2006,25/01/2021,37,51.1157,6.851,Dormagen-Zons,Nordrhein-Westfalen
1030,01/03/2005,25/01/2021,1,53.646,7.4302,Dornum,Niedersachsen
1039,01/12/2004,25/01/2021,317,51.5263,9.7978,Dransfeld-Ossenfeld,Niedersachsen
1046,01/10/2004,25/01/2021,72,51.7585,7.7528,Drensteinfurt,Nordrhein-Westfalen
1048,01/09/1995,25/01/2021,227,51.128,13.7543,Dresden-Klotzsche,Sachsen
1050,01/04/2006,25/01/2021,112,51.0221,13.847,Dresden-Hosterwitz,Sachsen
1051,01/03/2007,25/01/2021,120,51.0248,13.775,Dresden-Strehlen,Sachsen
1052,01/07/2004,25/01/2021,80,52.2174,12.1641,Drewitz bei Burg,Sachsen-Anhalt
1055,01/10/2004,25/01/2021,482,50.6316,8.1813,Driedorf,Hessen
1056,01/12/2005,25/01/2021,1,53.7118,9.3791,Drochtersen,Niedersachsen
1067,01/10/2004,25/01/2021,95,51.9265,12.3852,Düben,Sachsen-Anhalt
1072,01/06/2004,25/01/2021,107,49.4719,8.1929,Dürkheim,
1078,01/09/1995,25/01/2021,37,51.296,6.7686,Düsseldorf,Nordrhein-Westfalen
1089,08/06/2006,25/01/2021,197,48.5017,7.9943,Durbach-Ebersweier,Baden-Württemberg
1095,01/09/2006,25/07/2011,192,51.6001,10.1105,Krebeck-Renshausen,Niedersachsen
1103,01/10/2006,25/01/2021,592,48.1003,11.9872,Ebersberg-Halbing,Bayern
1107,01/12/2004,25/01/2021,346,49.852,10.4991,Ebrach,Bayern
1130,01/07/2009,25/01/2021,17,54.6282,9.3649,Eggebek,Schleswig-Holstein
1161,01/02/2005,25/01/2021,384,48.8777,11.2349,Eichstätt-Landershofen,Bayern
1166,01/09/2004,25/01/2021,105,51.4601,12.6692,Eilenburg,Sachsen
1170,01/07/2007,25/01/2021,265,51.8873,9.728,Eimen-Vorwohle,Niedersachsen
1176,02/11/2004,25/01/2021,976,47.9634,8.2693,Eisenbach,Baden-Württemberg
1197,01/11/2002,25/01/2021,460,48.9895,10.1312,Ellwangen-Rindelbach,Baden-Württemberg
1200,01/09/1995,25/01/2021,3,54.0691,9.0105,Elpersbüttel,Schleswig-Holstein
1207,01/03/2006,25/01/2021,558,50.2705,12.2742,Elster,
1210,01/07/2006,25/01/2021,90,51.4505,13.5046,Elsterwerda,Brandenburg
1214,01/08/2004,25/01/2021,431,48.2012,8.1088,Elzach-Fisnacht,Baden-Württemberg
1216,01/02/2005,25/01/2021,312,49.4251,9.243,Elztal-Rittersbach,Baden-Württemberg
1219,01/09/1995,30/06/1997,5,53.3449,7.1909,Emden-Nesserland,Niedersachsen
1223,01/09/2005,25/01/2021,13,52.5983,6.9449,Ringe-Großringe,Niedersachsen
1224,01/12/2002,25/01/2021,201,48.1378,7.8351,Emmendingen-Mundingen,Baden-Württemberg
1237,01/09/2004,25/01/2021,507,48.089,12.5073,Tacherting-Spreit,Bayern
1239,01/07/2004,21/09/2008,540,47.8516,8.7673,Engen/Hegau,Baden-Württemberg
1241,01/12/2006,25/01/2021,128,52.15,8.5226,Enger,Nordrhein-Westfalen
1246,01/08/2015,25/01/2021,104,51.8418,8.0607,Ennigerloh-Ostenfelde,Nordrhein-Westfalen
1255,01/12/2002,01/01/2019,220,49.1664,8.8523,Eppingen-Elsenz,Baden-Württemberg
1262,01/09/1995,25/01/2021,446,48.3477,11.8134,München-Flughafen,Bayern
1266,01/06/2004,25/01/2021,18,54.2992,9.3162,Erfde,Schleswig-Holstein
1270,01/09/1995,25/01/2021,316,50.9829,10.9608,Erfurt-Weimar,Thüringen
1278,01/12/2007,25/01/2021,160,52.2449,10.7182,Cremlingen-Destedt,Niedersachsen
1279,01/07/2006,25/01/2021,268,49.6497,11.0074,Möhrendorf-Kleinseebach,Bayern
1282,01/01/2010,25/01/2021,565,50.3043,12.3834,Erlbach-Eubabrunn,Sachsen
1290,01/11/2005,25/01/2021,716,48.1868,8.4672,Eschbronn-Mariazell,Baden-Württemberg
1297,01/10/2004,25/01/2021,156,51.2041,10.0138,Eschwege,Hessen
1300,01/06/2004,25/01/2021,351,51.254,8.1565,Eslohe,Nordrhein-Westfalen
1303,01/09/1995,25/01/2021,150,51.4041,6.9677,Essen-Bredeney,Nordrhein-Westfalen
1304,01/04/2006,25/01/2021,48,52.3345,8.3877,Essen-Brockhausen,
1320,01/05/2004,25/01/2021,137,51.261,11.1754,Etzleben,Thüringen
1327,01/08/2004,25/01/2021,147,50.7119,6.7905,Weilerswist-Lommersum,Nordrhein-Westfalen
1332,01/03/2005,25/01/2021,471,48.4832,12.7241,Falkenberg,
1336,01/09/2004,25/01/2021,70,52.8568,9.6756,Fallingbostel,
1346,16/08/2000,25/01/2021,1490,47.8749,8.0038,Feldberg/Schwarzwald,Baden-Württemberg
1350,01/08/2007,25/01/2021,48,52.0997,13.0016,Felgentreu,Brandenburg
1357,01/03/2005,25/01/2021,654,49.9807,11.8376,Fichtelberg/Oberfranken-Hüttstadl,Bayern
1358,01/09/1995,25/01/2021,1213,50.4283,12.9535,Fichtelberg,Sachsen
1392,01/04/2010,25/01/2021,621,49.7316,12.3489,Flossenbürg,Bayern
1411,01/01/2007,25/01/2021,745,50.5309,10.048,Birx/Rhön,Thüringen
1420,01/09/1995,25/01/2021,100,50.0259,8.5213,Frankfurt/Main,Hessen
1424,01/08/2008,25/01/2021,124,50.1269,8.6694,Frankfurt/Main-Westend,Hessen
1435,01/11/2002,25/01/2021,768,50.5921,10.8575,Ilmenau-Frauenwald,Thüringen
1441,01/04/2015,25/01/2021,416,50.9263,13.2711,Freiberg,Sachsen
1443,01/09/1995,25/01/2021,237,48.0232,7.8343,Freiburg,Baden-Württemberg
1451,01/06/2004,25/01/2021,2,53.8277,9.2493,Freiburg/Elbe,Niedersachsen
1458,01/04/2005,25/01/2021,492,49.5747,11.8859,Freihung-Großschönbrunn,Bayern
1468,01/09/1995,25/01/2021,797,48.4538,8.409,Freudenstadt,Baden-Württemberg
1473,01/01/2006,01/03/2019,414,49.1869,11.308,Freystadt-Michelbach,Bayern
1495,01/10/2004,25/01/2021,52,53.5389,11.7607,Goldenbow,Mecklenburg-Vorpommern
1497,01/12/2004,25/01/2021,75,53.0238,13.7088,Friedrichswalde,Brandenburg
1503,01/10/2012,25/01/2021,6,53.0643,7.9022,Friesoythe-Altenoythe,Niedersachsen
1526,01/11/2004,25/01/2021,242,50.5668,9.6533,Fulda-Horas,Hessen
1544,01/09/1995,25/01/2021,47,52.5129,11.3941,Gardelegen,Sachsen-Anhalt
1550,01/09/1995,25/01/2021,719,47.483,11.0621,Garmisch-Partenkirchen,Bayern
1559,01/06/2004,28/02/2007,402,50.7421,7.8163,Gebhardshain,Rheinland-Pfalz
1561,01/12/2004,25/01/2021,414,50.4034,9.2076,Gedern-Schönhausen,Hessen
1573,01/01/2006,25/01/2021,281,50.7133,9.9539,Geisa,Thüringen
1578,01/06/2004,01/10/2020,395,48.6516,11.5845,Geisenfeld-Eichelberg,Bayern
1580,01/12/2006,25/01/2021,110,49.9859,7.9548,Geisenheim,Hessen
1584,01/06/2009,25/01/2021,672,47.9242,8.6473,Geisingen,Baden-Württemberg
1587,30/08/1996,25/01/2021,536,48.9481,11.4289,Gelbelsee,Bayern
1590,01/07/2003,25/01/2021,37,51.4942,6.2463,Geldern-Walbeck,Nordrhein-Westfalen
1595,01/10/2012,25/01/2021,91,51.5762,7.0652,Gelsenkirchen-Buer,Nordrhein-Westfalen
1598,01/12/2005,25/01/2021,328,50.248,7.7456,Oberbachheim,Rheinland-Pfalz
1602,01/07/2004,25/01/2021,177,48.433,7.993,Ohlsbach,Baden-Württemberg
1605,01/09/1995,25/01/2021,35,52.3875,12.1601,Genthin,Sachsen-Anhalt
1607,01/11/2002,25/01/2021,344,49.1934,11.0267,Georgensgmünd,Bayern
1612,01/09/1995,25/01/2021,311,50.8813,12.1289,Gera-Leumnitz,Thüringen
1639,20/03/1997,25/01/2021,203,50.6017,8.6439,Gießen/Wettenberg,Hessen
1645,01/05/2004,25/01/2021,340,50.9656,9.05,Gilserberg-Moischeid,Hessen
1650,01/11/2004,25/01/2021,250,49.4648,7.4111,Henschtal,Rheinland-Pfalz
1669,01/11/2006,25/01/2021,43,53.808,12.9608,Borrentin-Wolkwitz,Mecklenburg-Vorpommern
1684,01/09/1995,25/01/2021,238,51.1622,14.9506,Görlitz,Sachsen
1689,01/07/2004,25/01/2021,443,49.7656,11.3061,Gößweinstein,Bayern
1691,01/09/1995,25/01/2021,167,51.5002,9.9507,Göttingen,Niedersachsen
1694,01/09/1995,25/01/2021,58,53.606,12.1033,Goldberg,Mecklenburg-Vorpommern
1711,01/05/2007,25/01/2021,438,47.7344,8.7932,Gottmadingen,Baden-Württemberg
1717,01/09/2005,25/01/2021,28,53.2651,11.5042,Grabow (Kläranlage Fahlenkamp),Mecklenburg-Vorpommern
1721,01/10/2006,25/01/2021,506,49.664,11.2239,Gräfenberg-Kasberg,Bayern
1735,01/03/2005,25/01/2021,628,48.7894,13.629,Grainet-Rehberg,Bayern
1736,02/07/2002,25/01/2021,27,53.5731,10.6797,Grambek,Schleswig-Holstein
1744,01/12/2004,25/01/2021,139,51.5718,14.4763,Graustein,Brandenburg
1750,01/09/2004,25/01/2021,190,51.4498,9.4131,Grebenstein,Hessen
1757,01/09/1995,25/01/2021,2,54.0967,13.4056,Greifswald,Mecklenburg-Vorpommern
1759,17/01/2001,25/01/2021,12,54.2437,13.9102,Greifswalder Oie,Mecklenburg-Vorpommern
1766,01/09/1995,25/01/2021,48,52.1344,7.6969,Münster/Osnabrück,Nordrhein-Westfalen
1769,01/10/2004,21/01/2021,25,53.8312,11.1713,Grevesmühlen,Mecklenburg-Vorpommern
1770,01/10/2006,25/01/2021,38,52.4233,11.966,Grieben,Sachsen-Anhalt
1792,01/12/2005,25/01/2021,27,52.7553,7.4815,Groß Berßen,Niedersachsen
1793,01/08/2006,25/01/2021,104,51.8806,11.465,Hecklingen-Groß Börnecke,Sachsen-Anhalt
1801,01/07/2004,25/01/2021,31,52.4042,12.7923,Groß Kreutz,Brandenburg
1803,01/09/2004,25/01/2021,34,54.0714,12.3238,Groß Lüsewitz,Mecklenburg-Vorpommern
1810,01/07/2014,23/01/2021,56,52.9094,13.5371,Schorfheide-Groß Schönebeck,Brandenburg
1813,01/01/2007,25/01/2021,15,54.4032,9.7654,Groß Wittensee,Schleswig-Holstein
1814,01/06/2004,25/01/2021,87,49.9052,8.4459,Groß-Gerau-Wallerstädten,Hessen
1827,01/01/2007,25/01/2021,3,54.3726,11.0828,Großenbrode,Schleswig-Holstein
1830,01/11/2004,21/01/2011,270,50.5455,9.5175,Großenlüder-Kleinlüder,Hessen
1832,16/08/2000,25/01/2021,1436,49.1129,13.1338,Großer Arber,Bayern
1844,01/01/2007,25/01/2021,517,47.9411,11.9004,Feldkirchen-Westerham-Lenzmühle,Bayern
1847,01/04/2008,25/01/2021,92,51.2743,12.0517,Weißenfels-Wengelsdorf,Sachsen-Anhalt
1848,01/11/2006,25/01/2021,118,51.309,12.1718,Markranstädt-Großlehna,Sachsen
1863,01/12/2007,25/01/2021,258,50.2667,9.1854,Gründau-Breitenborn,Hessen
1869,01/09/1995,25/01/2021,56,53.3153,13.9338,Grünow,Brandenburg
1870,01/11/2002,25/01/2021,160,49.5665,8.178,Grünstadt,Rheinland-Pfalz
1886,01/07/2004,25/01/2021,444,48.4878,10.2608,Günzburg,Bayern
1888,01/02/2005,25/01/2021,10,53.8119,12.114,Parum,Mecklenburg-Vorpommern
1937,01/02/2005,25/01/2021,524,48.3705,8.7666,Haigerloch-Weildorf,Baden-Württemberg
1957,01/09/1995,23/03/2015,93,51.5138,11.9499,Halle-Kröllwitz,Sachsen-Anhalt
1964,01/05/2005,25/01/2021,328,49.9445,6.3821,Olsdorf,Rheinland-Pfalz
1975,05/09/1995,25/01/2021,14,53.6332,9.9881,Hamburg-Fuhlsbüttel,Hamburg
1981,01/03/2005,25/01/2021,3,53.4777,9.8957,Hamburg-Neuwiedenthal,Hamburg
2011,01/01/2005,25/01/2021,50,52.3965,9.6629,Hannover-Herrenhausen,Niedersachsen
2012,01/06/2010,25/01/2021,57,52.3671,9.819,Hannover-Kirchrode,Niedersachsen
2014,01/09/1995,25/01/2021,59,52.4644,9.6779,Hannover,Niedersachsen
2023,01/09/1995,25/01/2021,501,48.7918,10.7062,Harburg,Bayern
2027,01/06/2006,25/01/2021,63,51.9753,8.2094,Harsewinkel,Nordrhein-Westfalen
2039,01/11/2006,25/01/2021,201,51.9002,10.5699,Harzburg,
2044,01/09/1995,25/01/2021,404,51.652,11.1367,Harzgerode,Sachsen-Anhalt
2050,01/10/2006,25/01/2021,218,48.2766,8.0841,Haslach im Kinzigtal,Baden-Württemberg
2064,01/01/2005,25/01/2021,449,49.184,10.8243,Haundorf-Obererlbach,Bayern
2066,01/11/2002,25/01/2021,257,50.7383,9.6608,Haunetal-Wehrda,Hessen
2072,10/10/2006,25/10/2016,665,48.2738,9.4745,Hayingen,Baden-Württemberg
2074,01/06/2004,25/01/2021,518,48.3752,8.98,Hechingen,Baden-Württemberg
2080,01/07/2004,12/09/2012,110,49.4206,8.6676,Heidelberg,Baden-Württemberg
2088,01/06/2004,12/05/2005,498,48.6765,10.1307,Heidenheim/Brenz,Baden-Württemberg
2109,01/10/2004,25/01/2021,450,50.0664,9.3458,Heinrichsthal,Bayern
2110,05/01/2003,25/01/2021,57,51.0411,6.1042,Heinsberg-Schleiden,Nordrhein-Westfalen
2115,09/02/2000,25/01/2021,4,54.175,7.892,Helgoland,Schleswig-Holstein
2152,01/09/2004,25/01/2021,380,51.0423,10.1469,Herleshausen-Archfeld,Hessen
2159,01/07/2005,25/01/2021,434,48.5915,8.8541,Herrenberg,Baden-Württemberg
2167,01/03/2005,02/04/2012,302,49.7672,7.3356,Niederwörresbach,Rheinland-Pfalz
2170,11/09/2004,25/01/2021,526,50.1499,6.5527,Weißenseifen,Rheinland-Pfalz
2171,01/09/1995,25/01/2021,272,50.852,9.7377,Hersfeld,
2174,01/11/2010,25/01/2021,238,51.6255,10.3695,Herzberg,Niedersachsen
2175,01/11/2006,25/01/2021,340,51.689,10.357,Herzberg-Lonau,Niedersachsen
2184,01/02/2005,26/07/2019,340,51.21,9.6915,Hessisch Lichtenau-Fürstenhagen,Hessen
2201,01/08/2005,25/01/2021,1,54.575,13.1044,Hiddensee-Vitte,Mecklenburg-Vorpommern
2211,01/10/2004,25/01/2021,295,50.7371,7.6528,Hilgenroth,Rheinland-Pfalz
2213,01/11/2002,25/01/2021,407,50.3105,6.6236,Lissendorf,Rheinland-Pfalz
2233,01/08/2004,25/01/2021,446,50.404,11.8193,Hirschberg,Thüringen
2236,01/03/2005,01/01/2018,205,49.049,7.756,Hirschthal,Rheinland-Pfalz
2252,01/07/2005,25/01/2021,270,50.899,14.7457,Bertsdorf-Hörnitz,Sachsen
2254,01/06/2005,25/01/2021,46,52.2396,7.6449,Hörstel-Riesenbeck,Nordrhein-Westfalen
2261,02/12/1999,25/01/2021,565,50.3123,11.876,Hof,Bayern
2272,01/12/2009,25/01/2021,43,53.7784,11.5595,Ventschow,Mecklenburg-Vorpommern
2274,01/11/2004,25/01/2021,518,50.092,12.2134,Hohenberg/Eger,Bayern
2278,01/12/2004,25/01/2021,131,51.764,13.47,Hohenbucko,Brandenburg
2290,01/09/1995,25/01/2021,977,47.8009,11.0108,Hohenpeißenberg,Bayern
2292,26/10/2004,01/10/2020,740,48.3551,9.3356,Hohenstein-Bernloch,Baden-Württemberg
2293,01/12/2004,25/01/2021,315,50.1919,8.088,Hohenstein-Breithardt,Hessen
2294,01/07/2004,25/01/2021,468,48.6572,12.0887,Hohenthann,Bayern
2306,01/08/2005,25/01/2021,8,54.3194,10.6732,Hohwacht,Schleswig-Holstein
2319,01/06/2005,25/01/2021,685,47.8823,11.6961,Holzkirchen,Bayern
2323,01/07/2006,25/01/2021,110,51.8529,9.4953,Bevern,
2329,01/09/2004,25/01/2021,255,50.2446,8.5725,Homburg,
2331,01/08/2004,25/01/2021,235,49.3278,7.3533,Homburg/Saar,Saarland
2355,01/10/2005,25/01/2021,4,53.1228,8.4205,Hude/Oldenburg,Niedersachsen
2362,01/08/2004,25/01/2021,328,50.5651,7.4843,Hümmerich,Rheinland-Pfalz
2372,01/05/2007,25/01/2021,604,50.5466,12.5706,Stützengrün-Hundshübel,Sachsen
2376,01/12/2005,25/01/2021,455,48.6549,13.5077,Büchlberg-Tannöd,Bayern
2387,01/08/2004,25/01/2021,626,48.0374,10.7409,Buchloe,Bayern
2388,01/03/2005,25/01/2021,193,48.0419,7.6322,Ihringen,Baden-Württemberg
2405,01/12/2004,25/01/2021,960,47.6078,10.202,Immenstadt-Reute,Bayern
2410,11/05/2018,11/05/2018,364,48.7112,11.5362,Ingolstadt (Flugplatz),Bayern
2415,01/02/2005,25/01/2021,713,47.8177,11.8681,Irschenberg-Kasthub,Bayern
2416,01/01/2005,25/01/2021,549,48.2022,12.0382,Isen-Westach,Bayern
2429,26/06/2003,25/01/2021,21,53.9897,9.5696,Itzehoe,Schleswig-Holstein
2431,01/10/2004,25/01/2021,367,50.1337,10.9317,Itzgrund-Herreth,Bayern
2438,01/04/2008,25/01/2021,40,53.4277,13.8167,Uckerland-Karlstein,Brandenburg
2444,01/08/2004,25/01/2021,155,50.9251,11.583,Jena (Sternwarte),Thüringen
2465,01/07/2002,25/01/2021,1,53.5083,9.7376,Jork-Moorende,Niedersachsen
2473,01/12/2004,25/01/2021,76,50.9316,6.3431,Jülich (Kläranlage),Nordrhein-Westfalen
2480,01/09/2004,25/01/2021,108,50.0643,8.993,Kahl/Main,Bayern
2483,12/10/1995,25/01/2021,839,51.1803,8.4891,Kahler Asten,Nordrhein-Westfalen
2485,02/05/2011,25/01/2021,489,48.917,9.6871,Kaisersbach-Cronhütte,Baden-Württemberg
2486,01/03/2005,25/01/2021,271,49.4262,7.7557,Kaiserslautern,Rheinland-Pfalz
2497,01/08/2004,25/01/2021,505,50.5014,6.5264,Kall-Sistig,Nordrhein-Westfalen
2503,01/09/1995,02/05/2003,487,50.6266,10.1455,Kaltennordheim,Thüringen
2518,01/11/2005,25/01/2021,34,54.0117,13.4999,Groß Kiesow-Schlagtow,Mecklenburg-Vorpommern
2522,28/01/1996,01/11/2008,112,49.0382,8.3641,Karlsruhe,Baden-Württemberg
2531,01/07/2004,25/01/2021,32,53.1724,11.7491,Karstädt/Prignitz,Brandenburg
2532,19/04/2000,01/11/2013,231,51.2963,9.4424,Kassel,Hessen
2538,01/06/2005,25/01/2021,425,49.3658,11.6925,Kastl,
2541,01/11/2002,25/01/2021,452,50.5467,11.0317,Katzhütte,Thüringen
2542,01/06/2004,01/04/2016,716,47.8652,10.6007,Kaufbeuren,Bayern
2546,01/05/2007,25/01/2021,141,48.5576,7.88,Kehl-Odelshofen,Baden-Württemberg
2556,01/11/2004,25/01/2021,460,49.8671,11.8807,Kemnath,Bayern
2559,01/09/1995,25/01/2021,705,47.7233,10.3348,Kempten,Bayern
2562,01/03/2009,25/01/2021,428,51.334,10.529,Helbedündorf-Keula,Thüringen
2564,14/07/2010,25/01/2021,28,54.3776,10.1424,Kiel-Holtenau,Schleswig-Holstein
2575,01/09/2006,25/01/2021,432,49.1804,9.98,Kirchberg/Jagst-Herboldshausen,Baden-Württemberg
2577,01/10/2005,25/01/2021,34,52.6007,8.8522,Kirchdorf,
2578,01/07/2004,25/01/2021,12,53.9995,11.4341,Kirchdorf/Poel,Mecklenburg-Vorpommern
2595,01/07/2004,25/01/2021,181,49.789,7.4853,Kirn,Rheinland-Pfalz
2597,01/09/1995,25/01/2021,282,50.224,10.0792,Kissingen,
2600,01/03/2005,25/01/2021,193,49.7363,10.1781,Kitzingen,Bayern
2601,01/09/1995,25/01/2021,826,50.2218,8.4469,Kleiner Feldberg/Taunus,Hessen
2618,01/10/2004,25/01/2021,732,50.8458,10.4803,Kleiner Inselsberg,Thüringen
2625,01/07/2004,25/01/2021,38,52.739,12.4984,Kleßen,Brandenburg
2627,01/07/2004,25/01/2021,128,51.5554,13.8845,Klettwitz,Brandenburg
2629,01/07/2004,25/01/2021,46,51.7612,6.0954,Kleve,Nordrhein-Westfalen
2638,01/09/1995,25/01/2021,974,48.1054,8.7548,Klippeneck,Baden-Württemberg
2641,01/09/2004,25/01/2021,85,51.5185,12.9065,Klitzschen bei Torgau,Sachsen
2662,01/12/2006,25/01/2021,59,52.5233,11.1261,Köckte,Sachsen-Anhalt
2667,01/09/1995,25/01/2021,92,50.8646,7.1575,Köln-Bonn,Nordrhein-Westfalen
2673,01/08/2007,25/01/2021,52,52.133,11.7757,Königsborn,Sachsen-Anhalt
2680,01/06/2005,25/01/2021,289,50.284,10.4456,Königshofen,
2689,01/11/2004,25/01/2021,40,53.2279,9.6527,Königsmoor,Niedersachsen
2700,01/12/2004,25/01/2021,416,48.8302,11.4872,Kösching,Bayern
2703,01/09/1995,10/10/2000,496,51.855,9.3239,Köterberg,Nordrhein-Westfalen
2704,01/05/2004,25/01/2021,76,51.7511,12.0094,Köthen (Anhalt),Sachsen-Anhalt
2708,01/07/2006,25/01/2021,742,47.6652,11.0805,Kohlgrub,
2709,01/11/2004,25/01/2021,230,49.9164,10.2363,Kolitzheim,Bayern
2712,01/09/1995,25/01/2021,428,47.6952,9.1307,Konstanz,Baden-Württemberg
2718,01/11/2002,24/01/2020,458,51.288,8.7928,Korbach-Rhena,Hessen
2733,01/11/2004,25/01/2021,46,52.7277,13.0121,Kremmen-Groß Ziethen,Brandenburg
2734,01/01/2006,25/01/2021,2,54.3237,9.0247,Krempel,Schleswig-Holstein
2740,01/05/2005,25/01/2021,897,47.6105,11.6462,Kreuth-Glashütte,Bayern
2749,01/08/2004,25/01/2021,52,54.0805,11.7425,Gersdorf,Mecklenburg-Vorpommern
2750,01/11/2005,25/01/2021,312,50.2523,11.3209,Kronach,Bayern
2763,01/12/2005,25/01/2021,1,53.5039,7.1217,Norden-Leybuchtpolder,Niedersachsen
2779,01/11/2004,25/01/2021,63,53.1486,12.0851,Kuhbier,Brandenburg
2787,01/01/2005,25/01/2021,354,49.2428,9.6786,Kupferzell-Rechbach,Baden-Württemberg
2792,01/08/2004,25/01/2021,498,48.3737,10.7604,Diedorf/Schwaben-Biburg,Bayern
2794,01/09/1995,25/01/2021,40,52.9363,12.4093,Kyritz,Brandenburg
2810,01/12/2006,25/01/2021,150,51.9446,8.7749,Lage,
2812,27/03/1996,25/01/2021,156,48.3647,7.828,Lahr,Baden-Württemberg
2814,01/11/2002,25/01/2021,685,48.5121,9.7645,Merklingen,Baden-Württemberg
2822,01/10/2004,25/01/2021,25,53.6369,9.0979,Lamstedt,Niedersachsen
2839,01/12/2006,25/01/2021,210,51.9262,10.3461,Langelsheim-Astfeld,Niedersachsen
2844,01/10/2007,25/01/2021,13,53.6956,8.6291,Langen-Holßel,
2850,01/11/2006,25/01/2021,777,48.1994,9.3327,Langenenslingen-Ittenhausen,Baden-Württemberg
2856,01/07/2004,25/01/2021,91,51.9173,13.0878,Langenlipsdorf,Brandenburg
2860,01/12/2004,25/01/2021,370,49.5075,10.7884,Langenzenn,Bayern
2878,01/08/2017,25/01/2021,117,51.3909,11.8786,Lauchstädt,
2880,11/07/2005,25/01/2021,324,49.5522,9.6345,Lauda-Königshofen-Heckfeld,Baden-Württemberg
2884,01/01/2010,25/01/2021,310,49.5042,11.2736,Lauf/Pegnitz (Kläranlage),Bayern
2890,01/09/2006,17/07/2019,305,51.5957,10.463,Lauterberg,
2900,01/12/2007,25/01/2021,208,49.709,8.6908,Lautertal/Odenwald-Reichenbach,Hessen
2907,01/02/1999,25/01/2021,7,54.7903,8.9514,Leck,Schleswig-Holstein
2925,01/09/1995,25/01/2021,356,51.3933,10.3123,Leinefelde,Thüringen
2928,07/04/1997,25/01/2021,138,51.3151,12.4462,Leipzig-Holzhausen,Sachsen
2932,01/09/1995,25/01/2021,131,51.4348,12.2396,Leipzig/Halle,Sachsen
2947,01/10/2006,25/01/2021,286,51.1333,8.0348,Lennestadt-Theten,Nordrhein-Westfalen
2951,01/06/2004,25/01/2021,20,53.1007,11.4864,Lenzen/Elbe,Brandenburg
2953,01/04/2007,25/01/2021,852,47.8597,8.2308,Lenzkirch-Ruhbühl,Baden-Württemberg
2958,01/10/2004,25/01/2021,204,51.0265,14.9357,Ostritz,Sachsen
2968,01/12/2008,25/01/2021,43,50.9894,6.9777,Köln-Stammheim,Nordrhein-Westfalen
2985,01/09/1995,25/01/2021,321,50.9383,14.2093,Lichtenhain-Mittelndorf,Sachsen
2988,01/07/2004,25/01/2021,162,51.4881,9.25,Liebenau-Haueda,Hessen
2992,01/11/2004,25/01/2021,495,50.5276,11.6604,Remptendorf,Thüringen
2996,09/10/2006,27/10/2016,352,48.7726,8.7287,Liebenzell,
2997,01/07/2004,25/01/2021,47,51.9861,14.3044,Lieberose,Brandenburg
2999,01/07/2004,25/01/2021,55,52.1211,7.8699,Lienen-Kattenvenne,Nordrhein-Westfalen
3015,01/09/1995,25/01/2021,98,52.2085,14.118,Lindenberg,Brandenburg
3023,01/09/1995,31/12/2016,22,52.5181,7.3081,Lingen,Niedersachsen
3024,11/09/2004,25/01/2021,485,50.094,7.5675,Lingerhahn (WWV RLP),Rheinland-Pfalz
3028,01/09/1995,25/01/2021,157,51.7854,8.8388,Lippspringe,
3031,01/07/2004,25/01/2021,92,51.6336,8.3945,Lippstadt-Bökenförde,Nordrhein-Westfalen
3032,30/11/1995,25/01/2021,25,55.011,8.4125,List auf Sylt,Schleswig-Holstein
3034,01/01/2007,25/01/2021,496,50.4505,11.635,Lobenstein,
3042,01/06/2008,25/01/2021,230,50.5617,8.2386,Löhnberg-Obershausen,Hessen
3044,01/07/2007,01/06/2018,22,52.7198,7.7472,Löningen,Niedersachsen
3080,01/10/2004,25/01/2021,521,50.5131,11.3664,Ludwigsstadt-Lauenstein,Bayern
3081,01/12/2007,25/01/2021,65,52.3452,8.6477,Espelkamp-Isenstedt,Nordrhein-Westfalen
3083,01/01/2005,25/01/2021,57,51.9267,13.8797,Lübben-Blumenfelde,Brandenburg
3086,26/06/1996,25/01/2021,15,53.8025,10.6989,Lübeck-Blankensee,Schleswig-Holstein
3093,01/09/1995,25/01/2021,16,52.9724,11.1374,Lüchow,Niedersachsen
3094,01/11/2006,25/01/2021,166,51.3122,14.0499,Kamenz-Cunnersdorf,Sachsen
3098,01/09/1995,25/01/2021,387,51.2452,7.6425,Lüdenscheid,Nordrhein-Westfalen
3121,01/09/2004,25/01/2021,677,49.9113,12.5276,Mähring,Bayern
3126,01/09/1995,25/01/2021,79,52.1029,11.5827,Magdeburg,Sachsen-Anhalt
3136,01/11/2002,25/01/2021,102,50.1294,8.8209,Mühlheim/Main,Hessen
3137,01/05/2008,25/01/2021,195,49.9656,8.2139,Mainz-Lerchenberg (ZDF),Rheinland-Pfalz
3146,01/11/2004,25/01/2021,31,53.2141,11.3686,Malk Göhren,Mecklenburg-Vorpommern
3147,01/09/2013,03/08/2020,418,48.7725,12.2179,Mallersdorf-Pfaffenberg/Niederbayern,Bayern
3148,01/11/2006,19/06/2007,40,53.2113,11.3247,Malliß,Mecklenburg-Vorpommern
3153,01/10/2004,25/01/2021,449,48.6189,12.6233,Mamming-Schneiderberg,Bayern
3155,01/08/2004,25/01/2021,413,50.1015,6.8009,Manderscheid-Sonnenhof,Rheinland-Pfalz
3158,01/09/1995,25/01/2021,12,52.5468,14.5452,Manschnow,Brandenburg
3164,01/07/2006,25/01/2021,187,50.8492,8.7746,Cölbe,
3166,01/09/1995,25/01/2021,639,50.651,13.1469,Marienberg,Sachsen
3167,27/05/1999,25/01/2021,547,50.6621,7.9603,Marienberg,
3175,01/11/2006,25/01/2021,504,50.5219,12.8282,Raschau,Sachsen
3179,01/08/2004,25/01/2021,320,49.666,10.3851,Markt Bibart,Bayern
3192,01/03/2005,25/01/2021,506,47.7046,13.0372,Marktschellenberg,Bayern
3196,01/09/1995,25/01/2021,81,53.3223,11.9319,Marnitz,Mecklenburg-Vorpommern
3204,01/07/2008,25/01/2021,429,50.7335,10.8815,Martinroda,Thüringen
3205,01/08/2005,25/01/2021,33,52.6579,13.179,Marwitz (Wasserwerk),Brandenburg
3207,01/12/2004,25/01/2021,328,50.1798,10.272,Maßbach,Bayern
3215,01/06/2007,25/01/2021,375,51.1683,8.7125,Medebach-Berge,Nordrhein-Westfalen
3217,01/08/2006,25/01/2021,22,54.8373,9.1481,Weesby,Schleswig-Holstein
3226,01/08/2006,25/01/2021,107,51.7259,11.5109,Aschersleben-Mehringen,Sachsen-Anhalt
3231,01/09/1995,25/01/2021,450,50.5612,10.3771,Meiningen,Thüringen
3234,01/02/2005,25/01/2021,158,51.1294,13.4328,Garsebach bei Meißen,Sachsen
3238,01/06/2011,25/01/2021,2,53.9497,13.9742,Dewichow,Mecklenburg-Vorpommern
3244,01/08/2009,25/01/2021,615,47.982,10.1384,Memmingen,Bayern
3247,01/05/2007,25/01/2021,567,48.0557,9.3185,Mengen-Ennetach,Baden-Württemberg
3248,01/04/2007,25/01/2021,516,50.3904,11.1324,Frankenblick-Mengersgereuth-Hämmern,Thüringen
3257,01/06/2004,25/01/2021,250,49.4773,9.7622,Mergentheim,
3263,01/09/2004,25/01/2021,171,49.4566,6.6266,Merzig,Saarland
3268,02/10/2013,25/01/2021,900,48.1694,8.9433,Meßstetten-Appental,Baden-Württemberg
3271,01/11/2004,25/01/2021,314,48.8548,12.9189,Metten,Bayern
3278,05/01/2003,25/01/2021,354,48.5377,9.2734,Metzingen,Baden-Württemberg
3279,01/11/2002,25/01/2021,173,51.0452,12.2989,Meuselwitz,Thüringen
3280,01/07/2004,25/01/2021,98,53.3083,12.2937,Meyenburg,Brandenburg
3284,01/05/2005,25/01/2021,240,49.6691,9.0085,Michelstadt,Hessen
3287,01/09/1995,25/01/2021,453,49.7176,9.0997,Michelstadt-Vielbrunn,Hessen
3289,10/11/2004,25/01/2021,356,50.7281,11.7838,Schmieritz-Weltwitz,Thüringen
3293,01/01/2006,25/01/2021,590,48.0649,10.4835,Mindelheim,Bayern
3297,01/07/2005,25/01/2021,64,53.2681,12.7221,Krümmel,Mecklenburg-Vorpommern
3304,01/04/2007,25/01/2021,296,51.2326,10.7693,Freienbessingen,Thüringen
3307,01/04/2008,25/01/2021,984,47.4779,11.2653,Mittenwald-Buckelwiesen,Bayern
3308,01/08/2005,25/01/2021,72,53.1846,13.6546,Mittenwalde/Uckermark,Brandenburg
3319,01/09/2006,25/01/2021,239,49.7644,9.253,Röllbach,Bayern
3321,01/07/2005,25/01/2021,77,51.1313,6.3609,Mönchengladbach-Hilderath,Nordrhein-Westfalen
3339,01/09/2006,25/01/2021,541,50.5202,6.2084,Monschau-Kalterherberg,Nordrhein-Westfalen
3340,01/05/2005,25/01/2021,265,50.4383,7.8061,Montabaur,Rheinland-Pfalz
3342,01/03/2005,25/01/2021,0,53.311,7.4329,Moormerland-Neermoor,Niedersachsen
3348,01/06/2004,25/01/2021,240,51.7209,9.8352,Moringen-Lutterbeck,Niedersachsen
3362,01/09/1995,25/01/2021,243,48.9721,8.8735,Mühlacker,Baden-Württemberg
3364,01/07/2004,25/01/2021,286,50.8681,10.8211,Drei Gleichen-Mühlberg,Thüringen
3366,01/09/1995,25/01/2021,406,48.279,12.5024,Mühldorf,Bayern
3376,01/06/2004,25/01/2021,63,52.5176,14.1232,Müncheberg,Brandenburg
3379,07/07/1997,25/01/2021,515,48.1632,11.5429,München-Stadt,Bayern
3402,01/11/2002,25/01/2021,750,48.3851,9.4837,Münsingen-Apfelstetten,Baden-Württemberg
3413,01/07/2004,24/10/2019,155,50.4522,8.7317,Münzenberg-Gambach,Hessen
3418,01/01/2007,25/01/2021,594,48.2754,9.6355,Ehingen-Kirchen,Baden-Württemberg
3426,01/06/2004,25/01/2021,127,51.566,14.7008,Muskau,
3432,15/04/2005,25/01/2021,380,48.5667,8.7184,Nagold,Baden-Württemberg
3435,01/11/2002,25/01/2021,477,48.5235,11.8398,Nandlstadt,Bayern
3438,01/12/2004,25/01/2021,401,48.8016,11.2181,Nassenfels,Bayern
3440,01/09/2005,25/01/2021,530,48.7071,10.2997,Nattheim-Fleinheim,Baden-Württemberg
3442,01/10/2004,25/01/2021,149,50.3574,8.7506,Nauheim,
3443,01/12/2004,01/07/2017,304,51.2748,9.1975,Naumburg-Altenstädt,Hessen
3445,01/11/2004,25/01/2021,100,51.9245,12.8888,Jessen (Elster)-Naundorf,Sachsen-Anhalt
3448,10/06/2010,25/01/2021,117,49.3945,8.8046,Neckargemünd-Kleingemünd,Baden-Württemberg
3473,20/11/2004,25/01/2021,89,53.0528,12.7562,Neuruppin-Gühlen Glienicke,Brandenburg
3478,01/09/1995,17/08/2005,81,53.5468,13.1914,Neubrandenburg,Mecklenburg-Vorpommern
3485,01/05/2005,25/01/2021,486,48.3115,10.3773,Neuburg/Kammel-Langenhaslach,Bayern
3490,01/09/2004,25/01/2021,111,50.5346,7.0853,Neuenahr,
3491,01/06/2004,25/01/2021,738,50.441,11.2401,Föritztal-Neuenbau,Thüringen
3497,01/10/2004,25/01/2021,336,50.1226,11.5596,Ludwigschorgast,Bayern
3499,01/07/2006,25/01/2021,292,51.2915,7.853,Neuenrade-Blintrop,Nordrhein-Westfalen
3509,01/10/2004,25/01/2021,77,53.102,13.0421,Menz,Brandenburg
3513,01/09/1995,25/01/2021,845,50.5002,11.1344,Neuhaus am Rennweg,Thüringen
3519,01/03/2005,25/01/2021,663,47.9519,8.9932,Neuhausen ob Eck-Unterschwandorf,Baden-Württemberg
3527,01/05/2004,25/01/2021,500,50.8923,9.405,Neukirchen-Hauptschwenda,Hessen
3538,01/09/1995,23/10/1995,20,54.0833,9.9333,Neumünster-Wasbek,Schleswig-Holstein
3540,01/11/2004,25/01/2021,195,50.8446,7.372,Neunkirchen-Seelscheid-Krawinkel,Nordrhein-Westfalen
3545,01/03/2005,25/01/2021,236,49.344,7.2297,Neunkirchen-Wellesweiler,Saarland
3552,01/09/1995,08/04/2019,38,52.9037,12.8072,Neuruppin,Brandenburg
3558,01/12/2006,25/01/2021,41,52.5,9.4941,Neustadt am Rübenberge,Niedersachsen
3564,01/02/2005,25/01/2021,35,53.4571,11.5687,Neustadt-Glewe-Friedrichsmoor,Mecklenburg-Vorpommern
3571,01/03/2008,25/01/2021,452,49.8174,11.8638,Neustadt am Kulm-Filchendorf,Bayern
3584,01/07/2004,25/01/2021,365,49.8135,6.5858,Newel,Rheinland-Pfalz
3589,01/06/2004,25/01/2021,162,50.2741,8.8653,Nidderau-Erbstadt,Hessen
3591,01/06/2004,25/01/2021,350,50.6743,6.424,Nideggen-Schmidt,Nordrhein-Westfalen
3602,01/10/2005,25/01/2021,421,50.1749,6.77,Oberstadtfeld,Rheinland-Pfalz
3607,01/10/2004,25/01/2021,416,48.6106,12.4143,Loiching,Bayern
3612,01/04/2007,25/01/2021,25,52.6711,9.2229,Nienburg,Niedersachsen
3617,01/01/2005,25/01/2021,431,49.1658,12.2788,Nittenau-Harting,Bayern
3621,01/01/2006,25/01/2021,435,48.8253,10.5067,Reimlingen,Bayern
3625,01/09/2004,25/01/2021,403,49.5568,7.0716,Nohfelden-Gonnesweiler,Saarland
3631,01/09/1995,25/01/2021,12,53.7123,7.1519,Norderney,Niedersachsen
3650,01/12/2004,25/01/2021,212,51.763,10.0416,Northeim-Imbshausen,Niedersachsen
3660,01/09/1995,25/01/2021,485,50.3602,6.8697,Nürburg-Barweiler,Rheinland-Pfalz
3667,01/03/2005,25/01/2021,368,49.4258,11.2538,Nürnberg-Netzstall,Bayern
3668,01/09/1995,25/01/2021,314,49.503,11.0549,Nürnberg,Bayern
3677,01/09/2004,25/01/2021,832,47.603,11.0607,Oberammergau,Bayern
3679,01/11/2006,25/01/2021,518,47.6187,12.1665,Kiefersfelden-Gach,Bayern
3690,10/10/2006,25/01/2021,372,48.3862,8.1426,Oberharmersbach,Baden-Württemberg
3700,01/11/2005,25/01/2021,472,50.2661,9.7727,Oberleichtersbach-Modlos,Bayern
3704,10/10/2006,25/01/2021,516,48.2851,8.5754,Oberndorf/Neckar,Baden-Württemberg
3714,01/09/2004,25/01/2021,896,47.5538,9.9406,Oberreute,Bayern
3722,01/01/2005,25/01/2021,484,48.2443,11.5528,Oberschleißheim,Bayern
3730,01/09/1995,25/01/2021,806,47.3984,10.2759,Oberstdorf,Bayern
3733,10/10/2006,20/10/2016,468,49.0495,9.3923,Oberstenfeld-Prevorst,Baden-Württemberg
3734,01/07/2004,25/01/2021,230,49.128,9.3525,Obersulm-Willsbach,Baden-Württemberg
3739,01/03/2005,25/01/2021,596,49.4521,12.4365,Oberviechtach,Bayern
3740,01/04/2008,25/01/2021,195,50.9933,13.9808,Lohmen/Sachsen,Sachsen
3761,01/09/1995,25/01/2021,276,49.207,9.5176,Öhringen,Baden-Württemberg
3791,30/09/1998,01/10/2012,11,53.1763,8.1824,Oldenburg,Niedersachsen
3795,01/12/2004,25/01/2021,49,51.7066,7.3564,Olfen,Nordrhein-Westfalen
3802,10/10/2006,27/10/2016,315,48.4765,8.1624,Oppenau,Baden-Württemberg
3811,01/09/1995,25/01/2021,150,51.296,13.0928,Oschatz,Sachsen
3815,01/09/1995,30/11/2010,95,52.2553,8.0534,Osnabrück,Niedersachsen
3820,01/11/2007,25/01/2021,52,52.3657,8.2013,Ostercappeln-Schwagstorf,Niedersachsen
3821,01/09/1995,25/01/2021,246,51.0873,11.9292,Osterfeld,Sachsen-Anhalt
3836,01/03/2006,25/01/2021,314,50.4538,10.2211,Ostheim v.d. Rhön,Bayern
3844,01/07/2009,25/01/2021,295,51.9473,9.3999,Ottenstein,Niedersachsen
3848,01/09/2005,25/01/2021,17,53.1403,9.1517,Ottersberg-Otterstedt,Niedersachsen
3849,01/03/2005,25/01/2021,667,47.9303,10.31,Ottobeuren,Bayern
3853,01/11/2004,25/01/2021,2,53.3819,8.4493,Ovelgönne,Niedersachsen
3857,01/01/2005,25/01/2021,886,47.6362,10.3892,Oy-Mittelberg-Petersthal,Bayern
3875,01/01/2005,25/01/2021,549,49.151,11.6896,Parsberg/Oberpfalz-Eglwang,Bayern
3881,01/11/2004,25/01/2021,12,53.142,14.1075,Passow,Brandenburg
3897,01/09/1995,25/01/2021,2,54.0893,10.8773,Pelzerhaken,Schleswig-Holstein
3904,01/09/2004,25/01/2021,152,49.5354,6.3789,Perl-Nennig,Saarland
3906,01/05/2004,25/01/2021,40,53.0952,11.8603,Perleberg,Brandenburg
3911,01/07/2004,25/01/2021,305,50.6175,9.725,Petersberg-Marbach,Hessen
3913,01/07/2004,25/01/2021,43,52.3817,9.0176,Petershagen,Nordrhein-Westfalen
3919,01/09/2004,25/01/2021,381,48.4252,12.9924,Pfarrkirchen,Bayern
3925,01/09/2005,25/01/2021,332,48.9329,8.6973,Pforzheim-Ispringen,Baden-Württemberg
3927,01/07/2004,25/01/2021,630,47.9345,9.2869,Pfullendorf,Baden-Württemberg
3939,01/10/2004,25/01/2021,385,49.1912,7.5879,Pirmasens,Rheinland-Pfalz
3945,01/03/2005,25/01/2021,66,53.4585,12.2417,Plau am See,Mecklenburg-Vorpommern
3946,01/09/1995,13/08/2020,386,50.4819,12.13,Plauen,Sachsen
3948,01/09/2004,25/01/2021,443,49.649,11.4686,Plech,Bayern
3960,01/09/2004,25/01/2021,323,48.3952,13.3139,Pocking,Bayern
3965,01/12/2007,25/01/2021,5,54.1034,13.1533,Süderholz-Neuendorf,Mecklenburg-Vorpommern
3967,01/04/2005,20/01/2021,70,52.1836,14.5748,Pohlitz,Brandenburg
3969,22/09/2004,25/01/2021,235,50.3051,7.3108,Polch,
3972,01/11/2002,25/01/2021,510,48.9343,10.7586,Polsingen-Döckingen,Bayern
3975,01/03/2005,25/01/2021,522,49.4777,11.5357,Pommelsbrunn-Mittelburg,Bayern
3987,01/09/1995,25/01/2021,81,52.3813,13.0622,Potsdam,Brandenburg
3999,01/11/2004,25/01/2021,597,49.7844,12.0331,Pressath-Mühlberg,Bayern
4016,01/03/2005,25/01/2021,284,49.8526,10.1006,Prosselsheim-Seligenstadt,Bayern
4017,01/11/2002,25/01/2021,386,50.1807,6.3509,Prüm-Watzerath,Rheinland-Pfalz
4023,01/04/2010,25/01/2021,270,51.2006,14.0207,Pulsnitz,Sachsen
4024,01/09/1995,25/01/2021,40,54.3643,13.4771,Putbus,Mecklenburg-Vorpommern
4026,01/09/1995,09/07/1996,1,54.5,11.2167,Puttgarden,Schleswig-Holstein
4032,01/12/2006,25/01/2021,142,51.7953,11.132,Quedlinburg,Sachsen-Anhalt
4036,01/03/2007,25/01/2021,204,51.3895,11.5412,Querfurt-Mühle Lodersleben,Sachsen-Anhalt
4039,07/02/1996,25/01/2021,11,53.7331,9.8776,Quickborn,Schleswig-Holstein
4052,01/12/2007,25/01/2021,94,51.7556,12.5103,Kemberg-Radis,Sachsen-Anhalt
4063,01/07/2003,25/01/2021,41,52.4461,8.5906,Rahden-Kleinendorf,Nordrhein-Westfalen
4065,01/07/2004,25/01/2021,462,48.6192,11.0059,Rain am Lech-Wallerdorf,Bayern
4078,01/12/2005,25/01/2021,16,53.2427,8.2237,Rastede,Niedersachsen
4080,01/09/2005,25/01/2021,10,53.7409,13.7906,Rathebur,Mecklenburg-Vorpommern
4090,01/08/2005,25/01/2021,89,50.0056,8.4291,Raunheim,Hessen
4094,01/06/2004,25/01/2021,440,47.8062,9.6206,Weingarten,
4101,01/08/2004,25/01/2021,16,53.3469,11.1992,Redefin,Mecklenburg-Vorpommern
4104,01/09/1995,25/01/2021,365,49.0425,12.1019,Regensburg,Bayern
4109,01/10/2004,25/01/2021,586,50.2214,12.0275,Rehau,Bayern
4112,01/12/2006,25/01/2021,60,52.4396,9.1335,Rehburg-Loccum,Niedersachsen
4127,01/01/2005,25/01/2021,347,50.9906,7.6958,Reichshof-Eckenhagen,Nordrhein-Westfalen
4132,01/11/2002,25/01/2021,115,51.4841,9.6121,Reinhardshagen-Vaake,Hessen
4134,01/11/2002,01/11/2018,172,49.8366,8.8806,Otzberg-Habitzheim,Hessen
4135,01/06/2007,25/01/2021,336,51.4248,10.1898,Reinholterode,Thüringen
4150,01/12/2005,25/01/2021,59,51.8118,7.0907,Reken,Nordrhein-Westfalen
4154,01/02/2011,01/07/2018,345,51.18,7.2505,Remscheid-Lennep,Nordrhein-Westfalen
4159,01/12/2004,25/01/2021,522,48.8104,10.9359,Tagmersheim-Blossenau,Bayern
4160,01/07/2004,25/01/2021,478,48.7425,8.924,Renningen-Ihinger Hof,Baden-Württemberg
4169,01/11/2002,25/01/2021,131,48.6703,7.9939,Rheinau-Memprechtshofen,Baden-Württemberg
4175,01/06/2004,25/01/2021,282,47.559,7.7721,Rheinfelden,Baden-Württemberg
4177,01/11/2008,25/01/2021,116,48.9726,8.3301,Rheinstetten,Baden-Württemberg
4185,01/09/2004,25/01/2021,363,48.9557,11.7278,Riedenburg,Bayern
4189,01/08/2004,25/01/2021,533,48.1479,9.4596,Altheim,
4211,15/04/2005,25/01/2021,493,48.4245,8.3303,Rippoldsau,
4219,01/10/2004,25/01/2021,512,50.3965,6.8568,Rodder,Rheinland-Pfalz
4224,01/09/2005,25/01/2021,388,49.2412,12.4125,Roding-Neubäu,Bayern
4230,01/11/2002,25/01/2021,137,49.9832,8.8395,Rödermark-Ober-Roden,Hessen
4248,01/11/2002,25/01/2021,402,49.3082,10.9183,Rohr/Mittelfranken-Dechendorf,Bayern
4261,01/03/2006,25/01/2021,442,47.8753,12.128,Rosenheim,Bayern
4271,01/09/1995,25/01/2021,4,54.1803,12.0808,Rostock-Warnemünde,Mecklenburg-Vorpommern
4275,01/12/2004,25/01/2021,32,53.1288,9.3398,Rotenburg (Wümme),Niedersachsen
4280,08/07/2010,25/01/2021,386,49.2162,11.1035,Roth,Bayern
4282,01/10/2004,25/01/2021,24,53.5954,13.8121,Rothemühl,Mecklenburg-Vorpommern
4287,01/01/2005,25/01/2021,415,49.3848,10.1732,Rothenburg ob der Tauber,Bayern
4288,01/12/2005,25/01/2021,95,52.1038,8.1808,Rothenfelde,
4290,01/09/2004,18/04/2017,14,53.5169,14.2044,Rothenklempenow,Mecklenburg-Vorpommern
4294,26/10/2004,25/01/2021,360,48.4704,8.9687,Rottenburg-Kiebingen,Baden-Württemberg
4300,01/07/2004,25/01/2021,588,48.1814,8.6356,Rottweil,Baden-Württemberg
4301,01/03/2005,25/01/2021,102,49.8502,7.871,Kreuznach,
4303,01/10/2004,13/10/2005,395,48.6532,13.4233,Ruderting,Bayern
4308,01/11/2002,25/01/2021,403,50.0517,7.8876,Rüdesheim-Presberg,Hessen
4310,01/07/2004,25/01/2021,105,49.1609,8.3009,Rülzheim,Rheinland-Pfalz
4313,01/08/2004,25/01/2021,370,51.4966,8.4342,Rüthen,Nordrhein-Westfalen
4315,01/09/2005,25/01/2021,914,48.5615,8.2228,Baiersbronn-Ruhestein,Baden-Württemberg
4323,01/03/2005,25/01/2021,461,49.6468,7.8837,Ruppertsecken,Rheinland-Pfalz
4336,20/06/1996,25/01/2021,320,49.2128,7.1077,Saarbrücken-Ensheim,Saarland
4349,01/06/2004,25/01/2021,248,48.9569,9.071,Sachsenheim,Baden-Württemberg
4351,09/10/2006,24/01/2021,295,47.5582,7.9773,Säckingen,
4352,01/09/2007,25/01/2021,5,54.516,13.5313,Sagard,Mecklenburg-Vorpommern
4354,01/01/2006,25/01/2021,457,48.7832,13.3146,Saldenburg-Entschenreuth,Bayern
4367,01/09/2009,25/01/2021,175,52.0781,9.552,Salzhemmendorf-Lauenstein,Niedersachsen
4368,01/10/2004,25/01/2021,93,51.7098,8.5796,Salzkotten,Nordrhein-Westfalen
4371,01/09/1995,25/01/2021,135,52.1042,8.7521,Salzuflen,
4377,01/09/2005,25/01/2021,518,50.3518,10.0034,Sandberg,Bayern
4387,01/08/2004,25/01/2021,805,49.0029,12.8237,Sankt Englmar,Bayern
4393,30/11/1999,25/01/2021,5,54.3279,8.6031,Sankt Peter-Ording,Schleswig-Holstein
4400,01/08/2004,25/01/2021,171,51.5439,8.1808,Sassendorf,
4405,01/03/2006,25/01/2021,35,54.6854,9.6261,Satrup,Schleswig-Holstein
4411,01/05/2004,25/01/2021,155,49.9195,8.9671,Schaafheim-Schlierbach,Hessen
4412,01/11/2004,25/01/2021,95,52.198,11.4218,Schackensleben,Sachsen-Anhalt
4413,01/10/2004,25/01/2021,555,47.9767,11.4693,Schäftlarn-Kloster Schäftlarn,Bayern
4441,01/05/2004,25/01/2021,479,48.5025,11.4543,Scheyern,Bayern
4445,01/09/2004,25/01/2021,609,51.7658,10.6533,Wernigerode-Schierke,Sachsen-Anhalt
4464,01/09/1995,25/01/2021,501,50.5679,11.8041,Schleiz,Thüringen
4466,01/09/1995,25/01/2021,43,54.5275,9.5487,Schleswig,Schleswig-Holstein
4469,01/08/2006,25/01/2021,399,50.5071,10.762,Schleusingen,Thüringen
4480,01/09/2004,25/01/2021,230,50.3447,9.5534,Schlüchtern-Herolz,Hessen
4485,01/02/2005,01/03/2017,296,50.725,10.4539,Schmalkalden,
4488,01/08/2006,25/01/2021,443,51.2127,8.2672,Schmallenberg-Sellinghausen,Nordrhein-Westfalen
4490,01/07/2004,23/01/2021,223,49.4149,6.836,Schmelz-Hüttersdorf,Saarland
4493,01/04/2005,25/01/2021,417,49.4116,12.076,Schmidgaden,Bayern
4494,01/02/2005,25/01/2021,455,49.2806,11.914,Schmidmühlen,Bayern
4501,01/09/1995,25/01/2021,937,50.6546,10.7693,Schmücke,Thüringen
4508,01/08/2004,25/01/2021,649,50.2968,6.4194,Schneifelforsthaus,Rheinland-Pfalz
4546,01/11/2004,25/01/2021,684,49.5273,12.5705,Schönsee-Dietersdorf,Bayern
4548,01/07/2007,25/01/2021,608,50.1847,12.0791,Schönwald/Ofr.-Brunn,Bayern
4555,01/10/2006,25/01/2021,29,52.663,12.1812,Schollene,Sachsen-Anhalt
4559,01/05/2005,25/01/2021,398,49.1644,12.6175,Schorndorf-Knöbling,Bayern
4560,01/02/2005,25/01/2021,265,50.4925,9.1226,Schotten,Hessen
4566,01/05/2004,01/09/2013,46,52.9738,12.1115,Schrepkow,Brandenburg
4567,01/06/2004,22/06/2020,417,48.5532,11.2844,Schrobenhausen,Bayern
4592,01/12/2005,25/01/2021,356,49.3278,12.0871,Schwandorf,Bayern
4594,01/12/2005,25/01/2021,1,53.2338,8.5115,Schwanewede-Neuenkirchen,Niedersachsen
4599,01/01/2005,25/01/2021,331,49.3425,11.1077,Wendelstein-Kleinschwarzenlohe,Bayern
4600,01/07/2005,25/01/2021,12,52.9081,9.0453,Schwarme,Niedersachsen
4601,01/08/2007,25/01/2021,28,52.6797,9.6524,Essel,Niedersachsen
4602,01/12/2008,25/01/2021,26,53.9385,10.6983,Schwartau,
4605,01/11/2004,25/01/2021,277,50.6441,11.1936,Schwarzburg,Thüringen
4617,01/11/2006,23/01/2021,1368,47.6701,11.8544,Obere Firstalm/Schlierseer Berge,Bayern
4618,01/11/2004,25/01/2021,30,52.747,11.9792,Schwarzholz,Sachsen-Anhalt
4623,14/06/2005,01/05/2020,834,48.1042,8.9976,Schwenningen,
4625,01/09/1995,25/01/2021,59,53.6425,11.3872,Schwerin,Mecklenburg-Vorpommern
4637,01/08/2008,25/01/2021,31,52.5404,13.1243,Staaken,Brandenburg
4642,01/09/1995,25/01/2021,21,52.8911,11.7297,Seehausen,Sachsen-Anhalt
4651,01/11/2004,25/01/2021,186,51.904,10.1885,Seesen,Niedersachsen
4666,01/06/2005,25/01/2021,40,54.3444,10.4581,Köhn,Schleswig-Holstein
4683,01/04/2012,25/01/2021,46,52.516,7.6762,Fürstenau,Niedersachsen
4692,01/03/2008,01/12/2018,229,50.8534,7.9966,Siegen (Kläranlage),Nordrhein-Westfalen
4703,01/11/2002,25/01/2021,581,48.0719,9.1943,Sigmaringen-Laiz,Baden-Württemberg
4704,01/05/2005,25/01/2021,507,47.5776,9.7404,Sigmarszell-Zeisertsweiler,Bayern
4706,01/03/2005,25/01/2021,358,48.2718,13.0273,Simbach/Inn,Bayern
4709,01/11/2011,25/01/2021,445,49.9996,7.5981,Simmern-Wahlbach,Rheinland-Pfalz
4710,01/05/2007,25/01/2021,718,48.6191,8.5247,Simmersfeld,Baden-Württemberg
4712,19/06/2006,25/01/2021,428,48.0821,8.0919,Simonswald-Obersimonswald,Baden-Württemberg
4719,01/09/1995,28/08/2007,169,49.2447,8.8787,Sinsheim,Baden-Württemberg
4741,01/12/2004,25/01/2021,152,51.14,7.093,Solingen-Hohenscheid,Nordrhein-Westfalen
4745,01/09/1995,25/01/2021,75,52.9604,9.793,Soltau,Niedersachsen
4748,01/11/2004,31/12/2010,221,51.352,10.9059,Sondershausen,Thüringen
4752,01/09/1995,30/06/2008,626,50.3746,11.1828,Sonneberg-Neufang,Thüringen
4755,01/11/2004,25/01/2021,847,48.6819,13.7351,Sonnen,Bayern
4763,01/10/2004,25/01/2021,265,51.0607,9.9266,Sontra,Hessen
4790,01/03/2006,25/01/2021,98,52.2054,9.5668,Springe,Niedersachsen
4803,01/09/2009,25/01/2021,1,53.4926,8.3768,Butjadingen-Inte,Niedersachsen
4818,01/10/2004,25/01/2021,597,50.1531,11.7402,Stammbach-Querenbach,Bayern
4841,01/07/2004,25/01/2021,1,53.6946,8.8735,Steinau,
4849,01/06/2005,25/01/2021,64,52.1173,7.3411,Steinfurt-Burgsteinfurt,Nordrhein-Westfalen
4850,01/01/2010,25/01/2021,779,47.7112,10.8758,Steingaden-Lauterbach,Bayern
4857,01/09/2004,25/01/2021,1,53.5534,9.6097,Mittelnkirchen-Hohenfelde,Niedersachsen
4878,01/02/2005,25/01/2021,504,51.6646,10.8811,Oberharz am Brocken-Stiege,Sachsen-Anhalt
4881,10/11/2004,25/01/2021,532,47.8591,9.0152,Stockach,Baden-Württemberg
4883,01/10/2005,25/01/2021,18,52.7659,9.4046,Frankenfeld-Hedern,Niedersachsen
4887,01/09/1995,25/01/2021,734,48.6656,9.8648,Stötten,Baden-Württemberg
4896,01/07/2005,25/01/2021,40,54.6654,9.805,Wagersrott,Schleswig-Holstein
4911,24/10/1996,25/01/2021,351,48.8275,12.5597,Straubing,Bayern
4912,01/07/2006,25/01/2021,81,52.5884,13.9289,Strausberg,Brandenburg
4920,01/09/2009,25/01/2021,3,53.4252,8.804,Beverstedt,Niedersachsen
4926,01/11/2002,14/05/2013,224,48.7896,9.2167,Stuttgart (Neckartal),Baden-Württemberg
4928,01/06/1998,25/01/2021,314,48.8281,9.2,Stuttgart (Schnarrenberg),Baden-Württemberg
4931,04/10/1995,25/01/2021,371,48.6883,9.2235,Stuttgart-Echterdingen,Baden-Württemberg
4946,01/06/2004,25/01/2021,500,48.5151,11.6545,Schweitenkirchen-Sünzhausen,Bayern
4958,01/03/2005,25/01/2021,333,50.2417,10.567,Sulzdorf an der Lederhecke,Bayern
4978,01/11/2002,25/01/2021,395,50.639,10.0228,Tann/Rhön,Hessen
4982,01/11/2004,25/01/2021,532,50.6074,12.939,Tannenberg,Sachsen
4984,01/11/2004,25/01/2021,46,53.2252,14.33,Hohenreinkendorf,Brandenburg
4997,01/03/2005,25/01/2021,196,50.9771,12.3419,Starkenberg-Tegkwitz,Thüringen
5000,01/02/2005,25/01/2021,498,47.8526,12.8282,Teisendorf,Bayern
5009,01/09/1995,25/01/2021,38,53.761,12.5574,Teterow,Mecklenburg-Vorpommern
5014,01/07/2004,25/01/2021,7,53.2758,8.9857,Worpswede-Hüttenbusch,Niedersachsen
5017,01/11/2005,25/01/2021,633,50.4002,11.3888,Teuschnitz,Bayern
5023,01/11/2002,25/01/2021,417,49.0871,11.2236,Thalmässing,Bayern
5029,01/09/1995,25/01/2021,386,49.4737,7.0385,Tholey,Saarland
5034,01/03/2006,25/01/2021,513,49.9842,11.4008,Thurnau-Tannfeld,Bayern
5046,01/03/2008,25/01/2021,501,49.8576,12.3542,Tirschenreuth-Lodermühl,Bayern
5057,01/08/2005,25/01/2021,26,54.1695,9.5559,Haale,Schleswig-Holstein
5058,01/12/2005,25/01/2021,55,53.6893,10.3657,Sprenge,Schleswig-Holstein
5059,28/10/2004,25/01/2021,781,47.7279,7.9988,Todtmoos,Baden-Württemberg
5064,01/12/2004,25/01/2021,37,51.2897,6.4437,Tönisvorst,Nordrhein-Westfalen
5084,01/02/2007,25/01/2021,290,51.1594,10.2473,Südeichsfeld-Wendehausen,Thüringen
5086,01/11/2002,25/01/2021,133,51.5776,9.4335,Trendelburg,Hessen
5097,01/01/2005,25/01/2021,10,54.0661,12.7675,Tribsees,Mecklenburg-Vorpommern
5099,01/06/2008,25/01/2021,132,49.7326,6.6131,Trier-Zewen,Rheinland-Pfalz
5100,01/04/2001,25/01/2021,265,49.7479,6.6583,Trier-Petrisberg,Rheinland-Pfalz
5103,01/08/2010,25/01/2021,348,49.3544,7.7948,Trippstadt-Neuhof,Rheinland-Pfalz
5109,01/10/2013,25/01/2021,69,53.5997,13.3039,Trollenhagen,Mecklenburg-Vorpommern
5111,01/04/2006,25/01/2021,560,48.0311,12.5396,Trostberg,Bayern
5123,01/09/2004,25/01/2021,413,48.208,12.6296,Tüßling,Bayern
5132,01/09/2005,25/01/2021,19,52.7432,7.075,Twist-Hebelermeer,Niedersachsen
5133,01/09/2004,25/01/2021,295,51.3344,8.9132,Twistetal-Mühlhausen,Hessen
5142,01/09/1995,25/01/2021,1,53.7444,14.0697,Ueckermünde,Mecklenburg-Vorpommern
5146,01/06/2004,25/01/2021,50,52.9414,10.5289,Uelzen,Niedersachsen
5148,01/07/2006,25/01/2021,60,52.4588,10.1888,Uetze,Niedersachsen
5149,01/01/2005,25/01/2021,306,49.5741,10.1915,Gollhofen,Bayern
5155,01/09/1995,01/09/2014,567,48.3837,9.9524,Ulm,Baden-Württemberg
5158,01/09/1995,25/01/2021,162,52.1601,11.1759,Ummendorf,Sachsen-Anhalt
5161,01/09/2004,25/01/2021,573,48.5599,13.7494,Untergriesbach-Glotzing,Bayern
5169,01/12/2004,25/01/2021,831,47.7674,10.4604,Kraftisried,Bayern
5206,10/10/2006,10/11/2016,396,49.1175,9.8972,Vellberg-Kleinaltdorf,Baden-Württemberg
5209,01/09/2004,25/01/2021,21,52.9586,9.2269,Verden-Dauelsen,Niedersachsen
5225,01/05/2004,25/01/2021,125,50.2135,8.7453,Vilbel,
5227,01/11/2004,25/01/2021,685,47.9688,10.9156,Vilgertshofen-Pflugdorf,Bayern
5229,01/08/2004,25/01/2021,719,48.0453,8.4608,Villingen-Schwenningen,Baden-Württemberg
5230,01/10/2004,25/01/2021,462,48.4527,12.3382,Vilsbiburg,Bayern
5240,01/07/2004,25/01/2021,380,51.1598,8.874,Vöhl-Buchenberg,Hessen
5262,01/10/2004,23/01/2021,814,47.7564,11.6928,Waakirchen-Demmelberg,Bayern
5263,01/07/2004,25/01/2021,203,51.067,9.3821,Wabern-Hebel,Hessen
5275,01/06/2004,25/01/2021,105,49.2445,8.5374,Waghäusel-Kirrlach,Baden-Württemberg
5276,01/04/2005,25/01/2021,476,47.9237,12.7558,Waging am See,Bayern
5277,11/09/1995,30/06/2009,349,50.8119,9.128,Wahlen,Hessen
5279,01/09/2004,25/01/2021,176,51.6194,9.5749,Wesertal-Lippoldsberg,Hessen
5280,01/03/2007,25/01/2021,35,53.9224,10.2267,Wittenborn,Schleswig-Holstein
5285,01/11/2004,25/01/2021,501,49.618,12.4895,Waidhaus-Pfrentsch,Bayern
5294,01/09/2005,25/01/2021,280,50.5121,8.1326,Waldbrunn-Lahr,Hessen
5297,01/10/2004,25/01/2021,300,51.2428,8.9714,Waldeck-Alraft,Hessen
5300,01/07/2004,25/01/2021,380,50.2596,8.3607,Waldems-Reinborn,Hessen
5303,01/09/2004,25/01/2021,723,49.936,12.0935,Waldershof-Schafbruck,Bayern
5335,01/08/2006,25/01/2021,348,50.8963,10.5484,Waltershausen,Thüringen
5347,01/09/1995,25/01/2021,236,51.5039,9.1118,Warburg,Nordrhein-Westfalen
5349,01/09/1995,25/01/2021,73,53.5196,12.6654,Waren (Müritz),Mecklenburg-Vorpommern
5360,01/07/2007,25/01/2021,331,51.4319,8.2665,Warstein-Hirschberg,Nordrhein-Westfalen
5371,20/03/1999,25/01/2021,921,50.4973,9.9427,Wasserkuppe,Hessen
5382,01/05/2006,25/01/2021,39,52.5883,9.7386,Wedemark-Elze,Niedersachsen
5395,01/11/2006,25/01/2021,340,50.7676,11.981,Harth-Pöllnitz Neundorf,Thüringen
5397,01/09/1995,25/01/2021,440,49.6662,12.1844,Weiden,Bayern
5401,01/01/2005,25/01/2021,424,49.2717,12.7451,Weiding,
5404,24/11/2008,25/01/2021,477,48.4024,11.6946,Weihenstephan-Dürnast,Bayern
5405,01/07/2004,25/01/2021,474,49.3376,10.606,Weihenzell-Grüb,Bayern
5416,01/08/2010,25/01/2021,183,50.4284,8.3806,Weilmünster,Hessen
5419,02/11/1996,30/06/2007,264,50.9751,11.3076,Weimar,Thüringen
5424,01/06/2007,25/01/2021,328,51.0177,11.3544,Weimar-Schöndorf,Thüringen
5426,01/09/1995,25/01/2021,553,49.3758,8.1213,Weinbiet,Rheinland-Pfalz
5433,01/09/2004,25/01/2021,380,49.5534,6.812,Weiskirchen/Saar,Saarland
5435,10/10/2006,25/01/2021,455,48.8457,8.9073,Weissach,Baden-Württemberg
5440,01/09/1995,25/01/2021,439,49.0115,10.9308,Weißenburg-Emetzheim,Bayern
5444,01/07/2004,25/01/2021,500,48.3091,10.2048,Weißenhorn-Oberreichenbach,Bayern
5453,01/04/2005,25/01/2021,174,48.188,7.6976,Weisweil-Waldeckhof,Baden-Württemberg
5468,01/07/2006,01/10/2020,418,50.9377,7.8475,Wenden-Dörnscheid,Nordrhein-Westfalen
5470,01/11/2002,25/01/2021,459,48.3631,11.5635,Fahrenzhausen,Bayern
5480,10/09/2003,25/01/2021,85,51.5763,7.8879,Werl,Nordrhein-Westfalen
5484,01/05/2004,25/01/2021,240,51.5835,10.709,Ellrich-Werna,Thüringen
5490,01/09/1995,25/01/2021,233,51.8454,10.7686,Wernigerode,Sachsen-Anhalt
5511,01/10/2005,25/01/2021,825,48.5206,9.6187,Westerheim,Baden-Württemberg
5513,01/09/2005,25/01/2021,92,52.2902,7.8687,Westerkappeln,Nordrhein-Westfalen
5516,25/06/1996,25/01/2021,3,54.5283,11.0606,Fehmarn,Schleswig-Holstein
5518,01/10/2005,25/01/2021,7,53.2504,7.935,Westerstede,Niedersachsen
5524,01/10/2006,25/01/2021,227,50.9087,8.6929,Wetter/Hessen-Amönau,Hessen
5538,01/01/2005,25/01/2021,551,47.8827,11.1576,Wielenbach (Demollstr.),Bayern
5541,01/08/2004,25/01/2021,263,50.132,8.317,Wiesbaden-Auringen,Hessen
5542,01/07/2004,25/01/2021,90,50.0421,8.2331,Wiesbaden-Biebrich,Hessen
5546,01/09/1995,25/01/2021,187,52.1207,12.4585,Wiesenburg,Brandenburg
5548,01/07/2004,25/01/2021,680,49.032,12.5505,Wiesenfelden-Utzenzell,Bayern
5555,01/11/2004,25/01/2021,43,52.2534,13.2361,Thyrow,Brandenburg
5559,01/12/2007,25/01/2021,383,48.7848,8.5764,Wildbad,
5562,01/06/2004,25/01/2021,570,48.6516,8.6801,Neubulach-Oberhaugstett,Baden-Württemberg
5614,01/09/2004,26/03/2019,35,52.7582,11.2549,Winterfeld-Sallenthin,Sachsen-Anhalt
5616,01/08/2004,27/07/2019,426,50.2282,6.2071,Winterspelt,Rheinland-Pfalz
5619,01/12/2004,25/01/2021,360,51.1637,7.4234,Wipperfürth-Gardeweg,Nordrhein-Westfalen
5629,01/09/1995,25/01/2021,105,51.8892,12.6445,Wittenberg,Sachsen-Anhalt
5635,01/10/2004,25/01/2021,147,49.9617,6.9287,Wittlich,Rheinland-Pfalz
5643,01/11/2004,25/01/2021,66,53.1864,12.4949,Wittstock-Rote Mühle,Brandenburg
5646,01/05/2004,30/09/2020,220,51.3645,9.749,Witzenhausen-Ziegenhagen,Hessen
5663,01/09/1995,31/12/1995,118,53.4618,13.6099,Woldegk,Mecklenburg-Vorpommern
5664,01/07/2004,25/01/2021,296,48.2953,8.2391,Wolfach,Baden-Württemberg
5676,01/09/2010,25/01/2021,82,52.3962,10.6892,Wolfsburg (Südwest),Niedersachsen
5684,01/11/2017,25/01/2021,40,52.2813,12.458,Wollin,Brandenburg
5692,01/09/2004,25/01/2021,88,49.6051,8.3659,Worms,Rheinland-Pfalz
5699,01/11/2004,25/01/2021,312,51.5427,8.7784,Wünnenberg-Eilern,Nordrhein-Westfalen
5705,01/09/1995,25/01/2021,268,49.7704,9.9576,Würzburg,Bayern
5711,01/07/2007,25/01/2021,392,49.1296,9.4945,Wüstenrot-Oberheimbach,Baden-Württemberg
5717,01/09/2006,25/01/2021,134,51.2256,7.1052,Wuppertal-Buchenhofen,Nordrhein-Westfalen
5719,01/10/2004,10/12/2009,235,51.2051,7.2,Remscheid,Nordrhein-Westfalen
5721,01/11/2004,25/01/2021,474,48.3569,12.7679,Wurmannsquick-Egelsberg,Bayern
5724,01/01/2007,25/01/2021,690,47.9589,10.0139,Rot an der Rot-Buch,Baden-Württemberg
5729,01/08/2005,25/01/2021,6,52.7605,14.2173,Wustrow,Brandenburg
5731,01/08/2004,25/01/2021,398,47.6783,8.3801,Wutöschingen-Ofteringen,Baden-Württemberg
5732,01/07/2005,25/01/2021,8,54.6928,8.5271,Wrixum/Föhr,Schleswig-Holstein
5733,01/05/2005,25/01/2021,20,51.697,6.3974,Xanten,Nordrhein-Westfalen
5745,01/06/2004,25/01/2021,51,52.9664,13.3268,Zehdenick,Brandenburg
5750,01/03/2006,25/01/2021,264,51.0314,12.1495,Zeitz,Sachsen-Anhalt
5758,01/10/2004,30/09/2020,293,49.8709,6.7074,Zemmer (Forsthaus Mülchen),Rheinland-Pfalz
5762,01/03/2009,25/01/2021,83,53.0704,10.8831,Zernien,Niedersachsen
5763,01/02/2005,25/01/2021,140,51.238,11.8296,Freyburg/Unstrut-Zeuchfeld,Sachsen-Anhalt
5767,01/01/2006,25/01/2021,27,53.2989,9.3352,Heeslingen-Wiersdorf,Niedersachsen
5779,01/09/1995,25/01/2021,877,50.7314,13.7516,Zinnwald-Georgenfeld,Sachsen
5797,01/12/2005,25/01/2021,349,50.6879,12.4329,Lichtentanne,Sachsen
5800,01/09/1995,25/01/2021,615,49.028,13.2385,Zwiesel,Bayern
5814,01/09/2006,25/01/2021,321,51.5504,11.403,Mansfeld-Annarode,Sachsen-Anhalt
5822,01/07/2004,25/01/2021,40,52.863,8.6988,Bassum,Niedersachsen
5825,01/05/2004,25/01/2021,40,52.6198,12.7867,Berge,Brandenburg
5839,01/07/1997,25/01/2021,0,53.3881,7.2287,Emden,Niedersachsen
5854,01/09/2005,25/01/2021,24,53.6557,13.5369,Friedland,Mecklenburg-Vorpommern
5856,07/01/1997,25/01/2021,476,48.5451,13.3532,Fürstenzell,Bayern
5871,28/10/1998,25/01/2021,497,49.9462,7.2645,Hahn,Rheinland-Pfalz
5906,01/09/1995,25/01/2021,98,49.5062,8.5585,Mannheim,Baden-Württemberg
5930,01/09/1995,25/01/2021,1,54.641,10.0238,Schönhagen (Ostseebad),Schleswig-Holstein
5941,01/03/2007,25/01/2021,686,47.6754,12.4698,Reit im Winkl,Bayern
5943,01/01/2007,25/01/2021,460,50.8377,14.0719,Rosenthal-Bielatal,Sachsen
6093,01/05/2004,25/01/2021,62,53.2139,10.4704,Wendisch Evern,Niedersachsen
6100,01/09/2004,25/01/2021,120,49.8626,8.2311,Hahnheim,Rheinland-Pfalz
6105,01/05/2004,25/01/2021,14,54.3194,9.8051,Ostenfeld (Rendsburg),Schleswig-Holstein
6109,01/09/2004,25/01/2021,50,53.3837,14.3728,Grambow-Schwennenz,Mecklenburg-Vorpommern
6129,01/11/2004,25/01/2021,291,51.0593,14.4266,Sohland/Spree,Sachsen
6157,01/10/2007,25/01/2021,8,53.641,8.0808,Wangerland-Hooksiel,Niedersachsen
6158,01/11/2004,25/01/2021,455,49.2247,10.6084,Weidenbach-Weiherschneidbach,Bayern
6159,01/12/2008,25/01/2021,8,52.9542,7.3196,Dörpen,Niedersachsen
6161,01/10/2004,25/01/2021,311,48.7577,13.0134,Osterhofen-Thundorf,Bayern
6163,19/10/1999,25/01/2021,27,54.1654,10.3519,Dörnick,Schleswig-Holstein
6169,01/12/2004,13/11/2009,761,47.761,10.8601,Steingaden-Riesen,Bayern
6170,01/06/2004,25/01/2021,40,52.0192,14.7254,Coschen,Brandenburg
6182,01/06/2004,27/03/2012,404,48.7757,12.1743,Mallersdorf-Pfaffenberg,Bayern
6186,01/08/2004,27/05/2019,268,50.1989,7.8651,Nastätten,Rheinland-Pfalz
6190,01/03/2005,25/01/2021,600,47.6392,13.0068,Berchtesgaden,Bayern
6191,01/01/2005,25/01/2021,684,48.9023,13.1442,Kirchberg/Niederbayern -Zell,Bayern
6195,01/10/2004,25/01/2021,305,49.956,11.0189,Scheßlitz-Köttensdorf,Bayern
6197,13/10/2000,25/01/2021,258,51.8664,9.271,Lügde-Paenbruch,Nordrhein-Westfalen
6199,01/10/2004,25/01/2021,16,54.2484,13.0418,Steinhagen-Negast,Mecklenburg-Vorpommern
6200,01/10/2004,25/01/2021,262,50.0785,10.4887,Königsberg/Bayern-Holzhausen,Bayern
6201,01/12/2004,25/01/2021,339,49.5334,10.1546,Simmershofen-Adelhofen,Bayern
6203,01/03/2005,25/01/2021,1088,47.6279,12.9015,Ramsau-Schwarzeck/Schmuck,Bayern
6215,01/02/2005,25/01/2021,689,49.2154,13.0662,Lam-Lambach,Bayern
6216,01/04/2005,25/01/2021,464,49.5321,12.2798,Trausnitz-Reisach,Bayern
6217,01/10/2004,25/01/2021,190,49.2406,6.9351,Saarbrücken-Burbach,Saarland
6257,01/07/2006,25/01/2021,723,47.6279,11.5166,Jachenau-Tannern,Bayern
6258,05/01/2003,25/01/2021,461,47.6845,9.4409,Friedrichshafen-Unterraderach,Baden-Württemberg
6259,01/06/2004,25/01/2021,524,49.021,9.6033,Großerlach-Mannenweiler,Baden-Württemberg
6260,01/12/2002,25/01/2021,385,49.3328,9.704,Ingelfingen-Stachenhausen,Baden-Württemberg
6262,01/11/2002,25/01/2021,413,48.7695,9.8737,Schwäbisch Gmünd-Weiler,Baden-Württemberg
6263,01/07/2004,25/01/2021,445,47.7738,8.8219,Singen,Baden-Württemberg
6264,01/06/2004,25/01/2021,457,51.414,8.65,Brilon-Thülen,Nordrhein-Westfalen
6265,01/05/2004,25/01/2021,36,52.3613,12.3867,Wusterwitz,Brandenburg
6266,01/09/2004,25/01/2021,112,52.0304,10.9626,Huy-Pabstorf,Sachsen-Anhalt
6268,01/11/2002,25/01/2021,173,50.7577,11.5178,Uhlstädt-Kirchhasel-Niederkrossen,Thüringen
6269,01/04/2007,25/01/2021,731,50.3594,12.4836,Klingenthal-Kamerun,Sachsen
6270,01/09/2004,24/01/2021,330,50.4099,10.4901,Römhild-Sülzdorf,Thüringen
6271,01/06/2004,25/01/2021,272,50.9771,12.0044,Crossen/Elster-Nickelsdorf,Thüringen
6272,01/10/2004,25/01/2021,283,50.8426,10.2518,Moorgrund Gräfen-Nitzendorf,Thüringen
6273,01/06/2004,25/01/2021,36,52.5075,11.8551,Demker,Sachsen-Anhalt
6275,01/07/2004,25/01/2021,325,48.6705,9.4627,Notzingen,Baden-Württemberg
6276,01/11/2004,02/11/2019,235,51.4895,7.7813,Fröndenberg-Hohenheide,Nordrhein-Westfalen
6303,08/03/2003,25/01/2021,584,51.2915,8.5982,Willingen/Hochsauerland,Hessen
6305,01/12/2004,25/01/2021,193,51.2061,10.4978,Mühlhausen/Thüringen-Görmar,Thüringen
6310,01/08/2004,25/01/2021,1,54.1049,13.8239,Karlshagen,Mecklenburg-Vorpommern
6312,01/11/2004,01/10/2020,362,49.5314,10.6418,Markt Erlbach-Mosbach,Bayern
6313,01/12/2004,25/01/2021,440,51.2488,7.4672,Breckerfeld-Wengeberg,Nordrhein-Westfalen
6314,01/08/2005,25/01/2021,306,51.0507,13.3003,Nossen,Sachsen
6336,01/11/2005,25/01/2021,288,50.0132,9.654,Lohr/Main-Halsbach,Bayern
6337,01/08/2004,25/01/2021,59,51.7663,7.5194,Lüdinghausen-Brochtrup,Nordrhein-Westfalen
6338,01/03/2005,25/01/2021,605,50.3618,11.6223,Steben,
6344,01/12/2004,25/01/2021,168,50.394,8.1423,Runkel-Ennerich,Hessen
6346,01/02/2005,25/01/2021,531,48.207,11.2035,Maisach-Galgen,Bayern
6347,01/03/2005,25/01/2021,304,50.0579,10.2972,Schonungen-Mainberg,Bayern
7075,01/02/2005,25/01/2021,429,48.702,11.8493,Elsendorf-Horneck,Bayern
7077,01/11/2004,25/01/2021,54,53.5255,13.0161,Groß Lukow,Mecklenburg-Vorpommern
7078,01/11/2004,25/01/2021,34,53.5035,11.0014,Dodow,Mecklenburg-Vorpommern
7079,01/12/2004,25/01/2021,14,53.0443,14.2423,Berkholz-Meyenburg,Brandenburg
7099,01/11/2004,25/01/2021,187,52.0111,10.3966,Liebenburg-Othfresen,Niedersachsen
7104,01/01/2005,25/01/2021,225,49.6208,9.6033,Königheim,Baden-Württemberg
7105,01/06/2005,25/01/2021,719,47.835,12.6548,Siegsdorf-Höll,Bayern
7106,01/09/2006,25/01/2021,105,52.0714,8.4565,Bielefeld-Deppendorf,Nordrhein-Westfalen
7135,01/01/2005,16/05/2016,565,47.9655,9.6804,Aulendorf-Haslach,Baden-Württemberg
7138,01/01/2005,25/01/2021,682,48.2962,9.0701,Burladingen-Hausen,Baden-Württemberg
7187,01/12/2004,25/01/2021,193,49.7636,9.4063,Freudenberg/Main-Boxtal,Baden-Württemberg
7244,01/09/1995,30/09/2004,62,53.1424,13.0319,Neuglobsow (HM),Brandenburg
7285,01/08/2005,25/01/2021,68,52.4153,11.0758,Bösdorf,Sachsen-Anhalt
7298,01/07/2005,25/01/2021,5,54.5268,9.0425,Hattstedt,Schleswig-Holstein
7319,01/03/2005,25/01/2021,435,48.7374,10.7393,Donauwörth-Osterweiler,Bayern
7321,01/09/2005,25/01/2021,160,51.1507,11.3321,Olbersleben,Thüringen
7322,01/09/2005,25/01/2021,700,47.766,7.7215,Malsburg-Marzell,Baden-Württemberg
7323,01/01/2006,25/01/2021,150,51.2359,12.5517,Belgershain,Sachsen
7326,01/01/2006,25/01/2021,134,51.1918,12.7645,Grimma-Kleinbothen,Sachsen
7327,01/05/2007,25/01/2021,323,50.8836,13.0425,Frankenberg-Altenhain,Sachsen
7328,01/01/2006,25/01/2021,219,50.8543,12.4216,Ponitz,Thüringen
7329,01/11/2005,25/01/2021,465,50.5467,12.2863,Treuen,Sachsen
7330,01/10/2005,25/01/2021,159,51.4633,7.978,Arnsberg-Neheim,Nordrhein-Westfalen
7331,01/09/2005,25/01/2021,467,48.6099,10.2674,Hermaringen-Allewind,Baden-Württemberg
7333,01/07/2006,25/01/2021,727,50.5803,13.2966,Marienberg-Rübenau,Sachsen
7334,01/03/2006,25/01/2021,131,51.2651,13.3588,Heyda bei Riesa,Sachsen
7335,01/02/2006,25/01/2021,138,51.3658,13.5801,Strauch,Sachsen
7337,01/04/2007,25/01/2021,332,51.0577,14.6128,Dürrhennersdorf,Sachsen
7341,18/07/2005,25/01/2021,119,50.09,8.7862,Offenbach-Wetterpark,Hessen
7343,01/04/2006,25/01/2021,689,50.62,13.4817,Deutschneudorf-Brüderwiese,Sachsen
7344,01/06/2006,25/01/2021,45,51.2992,6.2013,Nettetal-Hülst,Nordrhein-Westfalen
7350,01/08/2006,25/01/2021,585,49.1088,12.8231,Prackenbach-Neuhäusl,Bayern
7351,08/09/2005,25/01/2021,116,53.3175,13.4175,Feldberg/Mecklenburg,Mecklenburg-Vorpommern
7361,01/07/2006,25/01/2021,72,52.7363,10.344,Scharnhorst-Marwede,Niedersachsen
7364,01/01/2007,25/01/2021,74,51.6818,12.3053,Jeßnitz,Sachsen-Anhalt
7367,01/12/2007,25/01/2021,144,51.9643,9.8072,Alfeld,Niedersachsen
7368,01/11/2007,25/01/2021,312,51.0007,10.3621,Eisenach,Thüringen
7369,01/11/2007,25/01/2021,475,49.1623,10.3661,Feuchtwangen-Heilbronn,Bayern
7370,11/12/2006,25/01/2021,499,49.391,12.6838,Waldmünchen,Bayern
7372,01/10/2006,25/01/2021,37,52.7321,11.7123,Ballerstedt,Sachsen-Anhalt
7373,01/03/2006,25/01/2021,3,53.5984,6.7024,Borkum-Flugplatz,Niedersachsen
7374,01/03/2006,25/01/2021,46,52.0813,6.9409,Ahaus,Nordrhein-Westfalen
7375,24/09/2009,25/01/2021,411,49.645,7.5003,Homberg-Schönbornerhof,Rheinland-Pfalz
7378,01/07/2006,25/01/2021,101,51.0149,6.5173,Bedburg-Weiler Hohenholz,Nordrhein-Westfalen
7382,01/12/2006,25/01/2021,666,47.7096,9.866,Wangen/Allgäu-Schwaderberg,Baden-Württemberg
7389,01/12/2006,25/01/2021,82,52.7461,13.8427,Heckelberg,Brandenburg
7393,01/01/2010,25/01/2021,116,51.4493,14.2533,Hoyerswerda,Sachsen
7394,01/06/2006,25/01/2021,622,50.0315,11.9745,Wunsiedel-Schönbrunn,Bayern
7395,01/12/2007,25/01/2021,351,48.6595,12.5388,Gottfrieding,Bayern
7396,01/05/2008,25/01/2021,743,50.5084,9.2247,Hoherodskopf/Vogelsberg,Hessen
7403,30/03/2007,25/01/2021,672,47.7955,10.0324,Leutkirch-Herlazhofen,Baden-Württemberg
7410,01/02/2011,25/01/2021,350,50.7513,9.0224,Neu-Ulrichstein,Hessen
7412,01/10/2006,25/01/2021,340,50.0083,9.4238,Neuhütten/Spessart,Bayern
7418,01/06/2008,25/01/2021,321,50.802,12.6366,Sankt Egidien-Kuhschnappel,Sachsen
7419,01/12/2006,25/01/2021,389,50.661,12.0756,Langenwetzendorf-Göttendorf,Thüringen
7420,01/04/2007,25/01/2021,246,51.1044,11.7112,Naumburg/Saale-Kreipitzsch,Sachsen-Anhalt
7421,01/12/2006,25/01/2021,383,50.325,11.2395,Föritztal-Neuhaus-Schierschnitz,Thüringen
7423,01/04/2007,25/01/2021,163,51.3443,14.8387,Hähnichen-Trebus,Sachsen
7424,01/12/2006,25/01/2021,457,47.7724,12.9073,Piding,Bayern
7425,01/08/2006,25/01/2021,212,52.1384,9.1119,Rinteln-Volksen,Niedersachsen
7427,01/09/2007,25/01/2021,17,54.0188,9.9255,Padenstedt (Pony-Park),Schleswig-Holstein
7428,01/05/2007,25/01/2021,397,50.4167,10.8156,Veilsdorf,Thüringen
7429,01/12/2006,25/01/2021,334,49.425,9.3314,Seckach,Baden-Württemberg
7430,01/11/2007,25/01/2021,258,50.0615,10.8129,Rentweinsdorf-Treinfeld,Bayern
7431,01/11/2007,25/01/2021,604,48.013,11.5524,Oberhaching-Laufzorn,Bayern
7432,01/05/2007,25/01/2021,72,52.6423,10.6627,Wittingen-Vorhop,Niedersachsen
7499,01/07/2007,25/01/2021,172,50.7893,7.828,Wallmenroth,Rheinland-Pfalz
7500,01/01/2007,25/01/2021,82,52.0223,12.1597,Badewitz bei Zerbst,Sachsen-Anhalt
13654,01/08/2007,25/01/2021,285,51.0063,13.471,Wilsdruff-Mohorn,Sachsen
13662,08/05/2007,28/01/2016,37,52.3031,12.4029,Boecke,Brandenburg
13669,01/09/2007,25/01/2021,55,52.0087,7.8519,Ostbevern-Schirlheide,Nordrhein-Westfalen
13670,01/06/2007,25/01/2021,24,51.5088,6.7018,Duisburg-Baerl,Nordrhein-Westfalen
13671,01/12/2007,25/01/2021,221,50.9655,7.2753,Overath-Böke,Nordrhein-Westfalen
13672,01/05/2008,01/01/2015,593,48.5537,9.9877,Weidenstetten,Baden-Württemberg
13674,01/08/2007,25/01/2021,237,49.2943,8.9053,Waibstadt,Baden-Württemberg
13675,01/11/2007,25/01/2021,77,52.0818,9.4077,Hameln-Hastenbeck,Niedersachsen
13687,01/11/2007,25/01/2021,18,53.9005,9.8308,Weddelbrook,Schleswig-Holstein
13688,01/03/2008,25/01/2021,128,51.1693,12.2618,Pegau,Sachsen
13696,01/12/2007,25/01/2021,60,51.5966,7.4048,Waltrop-Abdinghof,Nordrhein-Westfalen
13698,01/01/2008,25/01/2021,504,48.8767,10.2413,Lauchheim (Berghof),Baden-Württemberg
13699,01/03/2008,25/01/2021,66,52.3667,10.1266,Lehrte-Sievershausen,Niedersachsen
13700,01/05/2008,25/01/2021,205,51.3329,7.3411,Gevelsberg-Oberbröking,Nordrhein-Westfalen
13710,01/04/2008,25/01/2021,490,48.5734,12.2576,Landshut-Reithof,Bayern
13711,01/12/2007,25/01/2021,289,50.682,11.515,Krölpa-Rockendorf,Thüringen
13712,01/09/2008,25/01/2021,44,52.1488,13.8359,Münchehofe,Brandenburg
13713,01/11/2007,25/01/2021,386,51.0899,7.6289,Meinerzhagen-Redlendorf,Nordrhein-Westfalen
13715,01/03/2008,25/01/2021,604,48.1003,9.8058,Biberach an der Riß-Bergerhausen,Baden-Württemberg
13716,01/09/2008,25/01/2021,818,47.819,8.5774,Blumberg-Randen,Baden-Württemberg
13774,01/06/2008,25/01/2021,328,50.8138,12.2985,Crimmitschau-Mannichswalde,Sachsen
13776,01/03/2008,04/01/2011,85,52.1789,9.9524,Hildesheim-Drispenstedt,Niedersachsen
13777,01/06/2008,25/01/2021,110,52.2467,10.9592,Helmstedt-Emmerstedt,Niedersachsen
13965,01/12/2008,25/01/2021,619,48.2639,8.8134,Balingen-Bronnhaupten,Baden-Württemberg
14157,01/12/2009,25/01/2021,168,49.5686,8.7013,Birkenau,Hessen
15000,01/04/2011,25/01/2021,231,50.7983,6.0244,Aachen-Orsbach,Nordrhein-Westfalen
15003,01/05/2011,25/01/2021,20,53.8754,13.2101,Schmarsow,Mecklenburg-Vorpommern
15207,01/11/2013,25/01/2021,317,51.2835,9.359,Schauenburg-Elgershausen,Hessen
15444,01/09/2014,25/01/2021,593,48.4418,9.9216,Ulm-Mähringen,Baden-Württemberg
15478,01/02/2015,25/01/2021,515,48.2095,10.0654,Dietenheim,Baden-Württemberg
15490,01/12/2016,25/01/2021,298,50.8053,8.3382,Eschenburg-Eibelshausen,Hessen
15512,01/09/2016,25/01/2021,66,53.0859,10.1611,Rehlingen-Ehlbeck,Niedersachsen
15514,01/11/2017,25/01/2021,104,49.3766,8.6177,Heidelberg-Kurpfalzhof,Baden-Württemberg
15555,01/05/2016,25/01/2021,815,47.8761,10.5849,Kaufbeuren-Oberbeuren,Bayern
